,prices,dateAdded,lat,long,propertyType,numBathroom,numBedroom,numBed,numPeople,house_num,street_name,zipcodes
0,107.0,2015-10-28,30.2616848987,-97.7079166698,House,1.0,1.0,1.0,2.0,2816,Prado Street,78702
2,59.0,2016-03-30,30.4063887078,-97.7171908468,Apartment,1.0,1.0,1.0,2.0,11902,Burnet Road,78758
3,59.0,2015-11-05,30.43971663,-97.7531159383,House,1.0,1.0,1.0,2.0,6508,McNeil Drive,78729
5,100.0,2015-10-21,30.2729693249,-97.8058899928,House,1.0,1.0,1.0,2.0,3409,Rosefinch Trail,78746
6,65.0,2016-08-05,30.2481294706,-97.8969504505,Apartment,1.0,1.0,1.0,3.0,6800,Covered Bridge Drive,78736
7,65.0,2016-04-08,30.2428785294,-97.896567542,House,1.0,1.0,1.0,2.0,8500,Red Willow Drive,78736
8,90.0,2016-04-02,30.2684572915,-97.7987424391,Apartment,1.0,0.0,1.0,2.0,3102,Eaneswood Drive,78746
9,150.0,2015-10-13,30.2459196861,-97.9110731194,Apartment,1.0,1.0,1.0,2.0,9401,Claxton Drive,78736
10,44.0,2016-08-05,30.3693339077,-97.6514856165,House,1.0,1.0,1.0,2.0,2121,Tin Can Drive,78754
11,140.0,2016-05-23,30.2451444586,-97.7437155876,House,1.0,1.0,2.0,2.0,1603,Alameda Drive,78704
12,800.0,2015-10-25,30.2468191758,-97.7436358783,House,1.0,1.0,1.0,3.0,1400,Sunset Lane,78704
15,645.0,2015-10-28,30.2214244658,-97.7348379332,House,1.0,2.0,2.0,5.0,3006,Burleson Road,78741
16,150.0,2015-10-25,30.2270043266,-97.7387790555,House,2.0,2.0,2.0,4.0,1913,Carlson Drive,78741
17,85.0,2016-03-25,30.3009670545,-97.7357360603,Apartment,1.0,1.0,1.0,2.0,3702,Home Lane,78705
18,125.0,2015-10-25,30.2727714191,-97.7329004118,House,1.0,1.0,1.0,2.0,1300,North Interstate 35 Frontage Road,78701
19,188.0,2015-10-25,30.3000612466,-97.7406593132,House,2.0,3.0,3.0,6.0,613,West 33rd Street,78705
20,89.0,2016-05-07,30.2502184026,-97.7666724792,Apartment,1.0,0.0,1.0,2.0,1800,South Lamar Boulevard,78704
21,89.0,2016-08-04,30.2767528278,-97.7530607721,Apartment,1.0,1.0,1.0,2.0,1102,Baylor Street,78703
22,119.0,2015-10-25,30.2738297859,-97.7563016472,Apartment,1.0,1.0,4.0,6.0,1121,West 7th Street,78703
23,149.0,2015-10-25,30.2657800035,-97.7407934003,Apartment,1.0,1.0,1.0,3.0,300,East 4th Street,78701
28,40.0,2015-10-21,30.312408819,-97.730562976,Apartment,1.0,1.0,1.0,2.0,400,West 46th Street,78751
29,1400.0,2015-10-25,30.2483768798,-97.7617369625,House,1.0,2.0,6.0,6.0,912,West Mary Street,78704
46,179.0,2015-10-25,30.2660397114,-97.7425820651,Apartment,1.0,1.0,2.0,4.0,401,Congress Avenue,78701
47,980.0,2016-04-18,30.2466895834,-97.7553240062,House,2.0,5.0,5.0,10.0,413B,West Annie Street,78704
61,3200.0,2015-10-25,30.2890202819,-97.7497704311,Apartment,1.0,1.0,1.0,2.0,2408,Leon Street,78705
73,4500.0,2015-11-01,30.2670314929,-97.7415017791,Apartment,1.0,2.0,4.0,6.0,501,Brazos Street,78701
77,650.0,2016-04-18,30.2967501936,-97.7431131112,Apartment,1.0,1.0,1.0,3.0,2911,Rio Grande Street,78705
100,1300.0,2015-10-25,30.2568517918,-97.7666193316,House,3.5,5.0,7.0,12.0,1700,Margaret Street,78704
101,3500.0,2015-10-25,30.2594390481,-97.7662967863,House,1.0,1.0,2.0,4.0,900,Garner Avenue,78704
102,60.0,2015-12-15,30.297167522,-97.7330324556,Apartment,1.0,1.0,1.0,2.0,305,East 34th Street,78705
103,150.0,2015-10-25,30.2480832805,-97.7756872989,House,1.0,2.0,4.0,6.0,2215,Bluebonnet Lane,78704
104,150.0,2016-05-23,30.2480031418,-97.7794416595,House,1.0,2.0,2.0,5.0,2107,Montclaire Street,78704
105,149.0,2015-10-25,30.2572038379,-97.7726520756,House,1.0,1.0,2.0,4.0,2102,Ashby Avenue,78704
106,1399.0,2015-11-01,30.2563524534,-97.7753495256,House,3.5,5.0,6.0,10.0,1701,Rabb Road,78704
107,180.0,2016-03-27,30.2931145375,-97.7339497135,Apartment,1.0,1.0,2.0,2.0,3101,Benelva Drive,78705
108,3600.0,2016-04-20,30.2585077902,-97.7698557517,House,1.5,2.0,4.0,6.0,1107,Bluebonnet Lane,78704
109,199.0,2016-08-21,30.2496285773,-97.7715978217,House,2.0,3.0,5.0,8.0,2102,Oxford Avenue,78704
110,800.0,2016-03-27,30.293072013,-97.7218242421,Apartment,2.0,2.0,2.0,6.0,3400,Harmon Avenue,78705
111,99.0,2015-10-28,30.2542298339,-97.7728104093,Apartment,1.0,1.0,1.0,2.0,1712,Bluebonnet Lane,78704
112,1000.0,2015-10-25,30.2619720687,-97.7656164839,House,2.0,2.0,6.0,8.0,1806,Linscomb Avenue,78704
113,230.0,2016-03-27,30.2990324778,-97.742825803,House,1.0,1.0,2.0,4.0,700,West 31st Street,78705
114,305.0,2016-03-27,30.2640391382,-97.7641484016,House,1.0,1.0,1.0,3.0,1853,Barton Springs Road,78704
115,125.0,2016-08-21,30.291116385,-97.7445689154,Apartment,1.0,1.0,1.0,2.0,2606,Rio Grande Street,78705
116,400.0,2015-10-28,30.2628616553,-97.76105458,Apartment,1.0,1.0,1.0,4.0,1600,Barton Springs Road,78704
117,300.0,2015-10-25,30.299345566,-97.7442537117,Apartment,1.0,1.0,1.0,4.0,800,West 31st Street,78705
118,200.0,2016-03-27,30.2971791052,-97.7420154799,Apartment,1.0,0.0,1.0,4.0,3002,Guadalupe Street,78705
119,3000.0,2015-10-31,30.2941207751,-97.7452277138,Apartment,2.0,2.0,3.0,3.0,2810,Salado Street,78705
120,300.0,2015-10-25,30.295272191,-97.7340627019,House,1.0,1.0,1.0,2.0,309,East 32nd Street,78705
121,35.0,2016-08-21,30.2962013174,-97.7354120982,Apartment,1.0,1.0,1.0,1.0,200,East 32nd Street,78705
122,950.0,2016-01-25,30.2997038422,-97.7447430394,House,3.5,3.0,3.0,6.0,806,West 31st Street,78705
123,225.0,2015-10-25,30.2993301753,-97.739589939,Apartment,1.0,1.0,1.0,2.0,503,West 33rd Street,78705
124,2500.0,2015-11-09,30.2611957073,-97.7658628964,Apartment,1.0,1.0,1.0,3.0,1809,Linscomb Avenue,78704
125,120.0,2016-03-27,30.2878232983,-97.7475779704,Apartment,1.0,1.0,1.0,2.0,915,West 24th Street,78705
127,799.0,2015-11-09,30.2571879393,-97.7633537973,House,3.0,3.0,3.0,6.0,910,Jessie Street,78704
128,110.0,2015-10-25,30.2267526287,-97.7388206297,House,1.0,1.0,1.0,2.0,1916,Tripshaw Lane,78741
129,20.0,2016-08-21,30.283203728,-97.7432053965,House,2.5,1.0,1.0,1.0,1930,San Antonio Street,78705
130,700.0,2016-03-27,30.2502869063,-97.7708134647,House,2.0,2.0,2.0,5.0,2010,Oxford Avenue,78704
131,400.0,2015-10-28,30.2231944352,-97.7363007007,House,2.0,2.0,2.0,7.0,2804,Catalina Drive,78741
132,495.0,2015-10-25,30.2570476881,-97.7632249997,House,1.5,2.0,2.0,5.0,910,Jessie Street,78704
133,93.0,2015-11-01,30.2534295978,-97.7729554731,Apartment,1.0,1.0,2.0,4.0,1800,Bluebonnet Lane,78704
134,1400.0,2016-08-21,30.2593562369,-97.7670856268,House,3.0,4.0,4.0,10.0,1808,Treadwell Street,78704
135,5600.0,2015-10-28,30.2583588367,-97.7672329368,House,2.5,4.0,6.0,8.0,1806,Dexter Street,78704
136,375.0,2016-04-18,30.2584035185,-97.7688139368,House,2.5,3.0,4.0,8.0,1819,Dexter Street,78704
137,450.0,2016-03-27,30.2592747725,-97.7609948475,House,2.0,2.0,2.0,8.0,701,Jessie Street,78704
138,40.0,2015-10-25,30.28674089,-97.7430299577,Apartment,1.0,1.0,2.0,2.0,2300,San Antonio Street,78705
140,300.0,2015-11-01,30.2980653181,-97.7315812375,House,1.0,2.0,2.0,6.0,400,East 35th Street,78705
141,249.0,2015-10-25,30.2536826966,-97.7705975737,House,2.0,3.0,5.0,8.0,1803,Anita Drive,78704
142,650.0,2015-10-25,30.2535316936,-97.7726563218,House,1.0,2.0,2.0,5.0,1803,Bluebonnet Lane,78704
143,89.0,2016-03-25,30.2895143559,-97.7446678755,Apartment,1.0,1.0,1.0,2.0,2500,Rio Grande Street,78705
144,999.0,2016-06-13,30.2980234788,-97.7440509733,House,4.0,6.0,10.0,14.0,3002,Washington Square,78705
145,900.0,2015-10-28,30.2988350228,-97.7339096528,Apartment,1.0,1.0,1.0,2.0,3400,Helms Street,78705
146,275.0,2015-10-25,30.2864371497,-97.7457663318,Apartment,1.0,1.0,2.0,3.0,2222,Rio Grande Street,78705
147,99.0,2016-03-25,30.2479485494,-97.7796233535,Apartment,1.0,0.0,1.0,3.0,2109,Montclaire Street,78704
148,300.0,2015-10-25,30.2833511676,-97.7423269865,Apartment,1.0,1.0,2.0,4.0,2010,Guadalupe Street,78705
149,495.0,2015-10-25,30.2634384076,-97.7645043376,House,1.0,1.0,1.0,2.0,511,Barton Boulevard,78704
150,350.0,2015-10-25,30.2839980433,-97.7442731438,Apartment,1.0,2.0,3.0,6.0,600,West 21st Street,78705
151,135.0,2015-10-25,30.2878689445,-97.7255778224,Apartment,1.0,0.0,1.0,2.0,2900,Cole Street,78705
152,2100.0,2015-10-28,30.2847518951,-97.7454772216,Apartment,2.0,2.0,3.0,5.0,2110,Rio Grande Street,78705
153,215.0,2016-04-08,30.2640066166,-97.7636967301,Apartment,1.0,1.0,1.0,3.0,1800,Barton Springs Road,78704
155,2000.0,2016-03-27,30.2611835123,-97.7622250041,House,2.0,1.0,2.0,2.0,601,Kinney Avenue,78704
156,300.0,2015-10-25,30.257156028,-97.7633419341,House,2.5,3.0,2.0,6.0,910,Jessie Street,78704
157,500.0,2016-04-18,30.284503204,-97.7458835657,Apartment,2.0,2.0,5.0,6.0,710,West 21st Street,78705
158,600.0,2016-04-22,30.2932391653,-97.7442912112,Apartment,4.0,4.0,4.0,8.0,701,West 28th Street,78705
159,499.0,2015-10-25,30.2836731036,-97.7462614569,Apartment,2.0,2.0,3.0,5.0,1907,Pearl Street,78705
160,350.0,2015-10-28,30.297519062,-97.7352193768,House,2.0,3.0,3.0,6.0,3301,Speedway,78705
161,125.0,2016-01-12,30.2538564885,-97.7751849078,Apartment,1.0,1.0,2.0,4.0,2001,Rundell Place,78704
162,3200.0,2016-04-20,30.2532504841,-97.7752228555,House,2.0,3.0,5.0,6.0,1901,Ann Arbor Avenue,78704
163,3360.0,2016-01-25,30.2540232304,-97.7659959209,Apartment,1.0,2.0,2.0,5.0,1501,Kinney Avenue,78704
164,375.0,2015-10-25,30.2866456396,-97.7472873675,Apartment,2.0,2.0,2.0,4.0,904,West 22 1/2 Street,78705
165,250.0,2015-10-25,30.2540276139,-97.7715127951,Apartment,1.0,2.0,2.0,5.0,1905,Anita Drive,78704
166,105.0,2016-08-21,30.249097248,-97.7690265545,House,1.0,1.0,2.0,4.0,2038,Texas 343 Loop,78704
167,395.0,2016-04-18,30.2517102965,-97.7689891159,Townhouse,2.5,3.0,4.0,6.0,1602,Bauerle Avenue,78704
168,199.0,2016-03-27,30.2986296405,-97.7329574315,Apartment,1.0,1.0,2.0,3.0,209,East 35th Street,78705
169,288.0,2016-04-08,30.2479904167,-97.7784924062,House,2.0,3.0,4.0,6.0,2409,Ann Arbor Avenue,78704
170,160.0,2016-03-27,30.2927335595,-97.7225179988,Apartment,1.0,1.0,1.0,2.0,3400,Harmon Avenue,78705
171,230.0,2015-10-25,30.2924213072,-97.7337999464,Apartment,2.0,2.0,3.0,5.0,3006,Duval Street,78705
172,40.0,2016-01-25,30.2877979654,-97.7449691329,Apartment,1.0,0.0,1.0,2.0,701,West 24th Street,78705
173,119.0,2016-03-27,30.2956949775,-97.7370658525,Apartment,1.0,1.0,2.0,3.0,3106,Speedway,78705
174,150.0,2015-10-25,30.2899967211,-97.746147701,Apartment,0.5,1.0,1.0,1.0,2501,Pearl Street,78705
176,60.0,2016-03-27,30.2846486768,-97.748262492,House,1.0,1.0,1.0,2.0,2102,San Gabriel Street,78705
177,35.0,2016-08-21,30.2980956454,-97.7435387351,Apartment,1.0,0.0,1.0,2.0,3007,Washington Square,78705
178,80.0,2016-08-21,30.295301593,-97.7346189197,Apartment,2.0,2.0,2.0,5.0,303,East 32nd Street,78705
179,250.0,2016-03-27,30.2939793589,-97.7452667495,Apartment,1.0,1.0,1.0,2.0,2802,Salado Street,78705
180,75.0,2016-08-21,30.2869223075,-97.7496060458,Apartment,1.0,1.0,1.0,4.0,2218,Leon Street,78705
181,950.0,2015-11-01,30.2509653084,-97.7749255143,Apartment,1.0,0.0,1.0,4.0,2000,Holland Avenue,78704
182,190.0,2015-10-25,30.2493013115,-97.7798175592,House,1.0,1.0,1.0,2.0,2203,Arpdale Street,78704
183,30.0,2015-10-25,30.2846071707,-97.7445944025,Apartment,1.0,1.0,1.0,5.0,2107,Rio Grande Street,78705
184,915.0,2015-11-09,30.2473979229,-97.7783045239,House,1.0,1.0,1.0,2.0,2008,Montclaire Street,78704
185,400.0,2016-01-12,30.2625219249,-97.7655410337,House,1.0,2.0,2.0,4.0,603,Barton Boulevard,78704
186,350.0,2015-10-25,30.2840824486,-97.7441747113,Apartment,1.0,1.0,1.0,3.0,2020,Nueces Street,78705
187,110.0,2016-08-21,30.2939045502,-97.7353590606,House,1.0,1.0,1.0,2.0,3050,Speedway,78705
188,500.0,2016-03-27,30.2635223414,-97.7639295897,House,1.5,3.0,5.0,10.0,1627,Barton Springs Road,78704
189,797.0,2015-10-25,30.2498429445,-97.7791503797,House,1.0,0.0,1.0,2.0,2200,De Verne Street,78704
191,695.0,2016-04-18,30.2557800741,-97.7740439604,House,2.0,3.0,3.0,6.0,2107,Wright Street,78704
192,795.0,2015-10-25,30.2538782422,-97.7692333096,Townhouse,2.5,3.0,4.0,6.0,1709,Collier Street,78704
193,1540.0,2016-04-18,30.2288751727,-97.7375295032,House,1.5,3.0,3.0,4.0,2525,Glen Springs Way,78741
194,130.0,2016-08-21,30.2215316424,-97.7352569843,House,2.0,3.0,3.0,6.0,3011,Matador Drive,78741
195,120.0,2015-10-25,30.2230934229,-97.7342015938,House,1.0,2.0,2.0,4.0,2804,Ware Road,78741
196,100.0,2015-10-25,30.2175013472,-97.7377793521,House,1.5,1.0,1.0,1.0,2207,Ventura Drive,78741
197,250.0,2016-08-21,30.224417402,-97.7407249948,House,3.0,3.0,4.0,8.0,1910,Wickshire Lane,78741
198,210.0,2016-08-21,30.2281209562,-97.7405364208,House,2.5,4.0,5.0,8.0,2708,Parker Lane,78741
199,500.0,2015-10-28,30.2275402248,-97.7396995139,House,2.0,2.0,2.0,4.0,1813,Carlson Drive,78741
200,450.0,2016-08-17,30.41691553,-97.8902385791,House,3.0,4.0,4.0,10.0,13911,Skyline Drive,78732
202,225.0,2015-11-05,30.3652373702,-97.7829525926,House,1.5,1.0,2.0,2.0,6800,Ladera Norte,78731
203,2500.0,2015-10-13,30.4205830062,-97.9218405447,House,2.5,2.0,2.0,4.0,5801,Beacon Drive,78734
204,1300.0,2015-11-09,30.2208789723,-97.6957793871,House,1.0,1.0,2.0,2.0,2006,Yellow Jacket Lane,78741
205,179.0,2016-01-25,30.2458944267,-97.7455732868,House,1.0,2.0,2.0,2.0,1606,East Side Drive,78704
206,600.0,2016-08-17,30.2699806204,-97.7812535853,House,2.0,3.0,4.0,6.0,2406,Rollingwood Drive,78746
207,150.0,2016-08-15,30.2519725362,-97.7198316307,House,1.0,1.0,1.0,2.0,2401,Garden Street,78702
208,99.0,2016-08-17,30.3585504403,-97.7946877679,Apartment,1.0,1.0,2.0,4.0,5901,Shepherd Mountain Cove,78730
209,149.0,2016-01-25,30.2547206249,-97.7203089874,House,1.5,2.0,3.0,5.0,2208,Willow Street,78702
210,75.0,2015-10-25,30.2438805254,-97.7259687536,Apartment,1.0,1.0,1.0,2.0,1100,Town Creek Drive,78741
212,43.0,2016-04-08,30.3701322182,-97.8032681409,Apartment,1.0,1.0,1.0,2.0,7391,Ranch to Market 2222,78750
213,85.0,2016-04-08,30.2260732,-97.691534889,House,2.0,1.0,2.0,4.0,22,Coyote Drive,78741
214,111.0,2016-04-04,30.4163469165,-97.8866882037,House,1.0,1.0,1.0,2.0,6707,Mountain Trail,78732
215,95.0,2015-10-25,30.2382420007,-97.8074758688,Apartment,,1.0,1.0,2.0,3212,Cupid Drive,78735
216,400.0,2016-08-02,30.2139980177,-97.8051462875,House,2.0,2.0,2.0,4.0,2225,Independence Drive,78745
217,800.0,2015-10-28,30.3556172489,-97.7513076392,Apartment,1.5,1.0,1.0,2.0,7231,Wood Hollow Drive,78731
218,70.0,2016-04-04,30.4557425756,-97.8058158646,Apartment,1.0,1.0,1.0,2.0,10725,Lake Creek Parkway,78750
221,100.0,2016-08-17,30.4267739489,-97.6847090342,House,1.0,1.0,1.0,2.0,1933,Chasewood Drive,78727
223,189.0,2015-11-05,30.4492490651,-97.7608799788,House,2.0,3.0,4.0,7.0,7655,Elkhorn Mountain Trail,78729
224,20.0,2016-08-17,30.4484835642,-97.7852238023,Apartment,1.0,1.0,1.0,2.0,13355,U.S. 183,78729
225,6000.0,2015-10-28,30.3829039297,-97.9206709883,House,2.5,3.0,5.0,8.0,14314,Red Feather Trail,78734
226,83.0,2016-04-04,30.5065367388,-97.7378987921,House,2.0,4.0,4.0,8.0,16715,Great Oaks Drive,78664
227,180.0,2016-04-08,30.3773708321,-97.7597761255,Apartment,1.0,1.0,1.0,2.0,8200,Neely Drive,78759
228,140.0,2016-08-17,30.3966792367,-97.8329017596,Apartment,1.0,1.0,1.0,2.0,9900,McNeil Drive,78750
230,35.0,2016-08-17,30.3957787124,-97.6917434056,Apartment,1.0,1.0,1.0,2.0,1410,Elm Brook Drive,78758
231,250.0,2016-04-08,30.3575255541,-97.7415461578,House,2.0,4.0,5.0,8.0,3105,Whitepine Drive,78757
232,145.0,2015-10-28,30.3699995537,-97.7376499218,Apartment,1.0,1.0,1.0,1.0,8505,Shoal Creek Boulevard,78757
233,75.0,2016-08-17,30.3833863208,-97.7459542586,House,1.0,1.0,1.0,7.0,4001,Dominion Cove,78759
234,135.0,2016-08-17,30.4613361174,-97.7883924814,House,2.0,2.0,3.0,6.0,12821,Hymeadow Drive,78729
235,49.0,2016-04-04,30.416208023,-97.7265983974,House,1.0,1.0,1.0,2.0,4200,Balboa Lane,78727
236,66.0,2016-08-17,30.4306829416,-97.7465353722,Apartment,1.0,1.0,1.0,2.0,12345,Alameda Trace Circle,78727
237,50.0,2016-08-17,30.1592904306,-97.834454636,House,2.0,1.0,2.0,6.0,1913,Coats Circle,78748
238,699.0,2015-10-25,30.2606351372,-97.7065171064,House,1.0,1.0,1.0,3.0,3004,Garwood Street,78702
239,495.0,2016-08-17,30.3686747303,-97.9291573411,Apartment,2.5,3.0,4.0,8.0,1301,Pike Road,78734
240,89.0,2016-04-04,30.2113398382,-97.7997364984,House,1.0,1.0,1.0,2.0,1900,Parkside Lane,78745
241,43.0,2016-04-20,30.231483427,-97.7211419541,Apartment,1.0,1.0,1.0,1.0,2100,Wickersham Lane,78741
242,275.0,2016-04-20,30.2083620897,-97.7954733939,House,1.0,1.0,2.0,4.0,6101,Harwin Lane,78745
243,55.0,2016-08-17,30.2359695229,-97.8070637892,House,1.0,1.0,1.0,3.0,4505,Dudley Drive,78735
244,345.0,2015-10-13,30.2592935269,-97.6696996569,House,2.0,4.0,4.0,6.0,2500,Highland Haven Drive,78725
245,100.0,2016-08-17,30.3903162991,-97.7649355764,Apartment,1.0,1.0,1.0,2.0,5214,Bluffside Drive,78759
246,70.0,2016-08-17,30.2215385319,-97.7828745474,House,1.0,1.0,1.0,3.0,4605,Banister Lane,78745
247,350.0,2015-10-25,30.233156395,-97.7731371551,House,1.0,1.0,1.0,2.0,1008,Audrey Court,78704
249,65.0,2015-10-25,30.1538966574,-97.8028462175,House,1.0,1.0,1.0,5.0,333,Camperdown Elm Drive,78748
250,30.0,2016-04-08,30.2929177081,-97.6425296841,House,1.0,1.0,1.0,2.0,6140,Seville Drive,78724
251,298.0,2015-10-28,30.4260602846,-97.6943685286,House,1.5,1.0,1.0,2.0,13108,Kellies Farm Lane,78727
252,35.0,2016-08-17,30.354996763,-97.7074270583,House,1.0,1.0,1.0,2.0,838,Thurmond Street,78758
253,45.0,2016-04-08,30.2271199506,-97.8349820215,Apartment,1.0,1.0,2.0,2.0,6100,South MoPac Expressway,78735
254,35.0,2016-08-17,30.3731677799,-97.6984153496,House,1.0,1.0,1.0,2.0,10121,Aspen Street,78758
255,50.0,2015-07-15,30.1854444484,-97.8097809688,House,1.5,1.0,1.0,2.0,1555,West Dittmar Road,78745
256,2500.0,2015-10-31,30.1681788221,-97.9726737965,House,1.0,1.0,2.0,4.0,13721,Evergreen Way,78737
257,55.0,2016-04-08,30.4054328664,-97.7123100743,Apartment,1.0,1.0,2.0,3.0,2600,Gracy Farms Lane,78758
258,175.0,2016-08-17,30.4125803003,-97.9162669303,House,1.0,1.0,1.0,3.0,15207,Rainbow 1 Street,78734
259,450.0,2016-04-08,30.2687079143,-97.8018635613,House,2.5,4.0,6.0,10.0,1309,Verdant Way,78746
260,69.0,2015-10-13,30.2206153068,-97.8583337357,House,1.0,1.0,1.0,2.0,5401,Convict Hill Road,78749
262,49.0,2016-08-17,30.3016067181,-97.7571205832,House,1.0,1.0,2.0,3.0,1801,Mohle Drive,78703
263,39.0,2015-11-09,30.1789155305,-97.7948656504,House,1.5,1.0,1.0,2.0,8401,South 1st Street,78748
265,500.0,2015-10-25,30.2298479301,-97.7402913453,House,2.0,4.0,3.0,10.0,2506,Candlewood Court,78741
266,495.0,2016-03-27,30.2275604622,-97.7367932946,House,2.0,3.0,3.0,6.0,2005,Iroquois Lane,78741
268,149.0,2016-01-25,30.228182929,-97.734662089,House,1.0,2.0,3.0,6.0,2425,Burleson Court,78741
271,200.0,2016-04-20,30.2625609468,-97.7648518178,House,1.0,1.0,1.0,2.0,600,Cliff Drive,78704
272,172.0,2016-03-27,30.2582654191,-97.7596949308,House,1.0,2.0,2.0,6.0,704,South Lamar Boulevard,78704
273,499.0,2016-04-18,30.2544782374,-97.7704834167,House,1.0,2.0,2.0,4.0,1806,Anita Drive,78704
274,225.0,2015-10-25,30.2509622037,-97.7697802086,House,2.0,4.0,8.0,10.0,1604,Hether Street,78704
275,595.0,2016-03-27,30.2979622233,-97.7447351204,House,4.0,4.0,4.0,6.0,805,West 30th Street,78705
277,175.0,2015-10-28,30.255707487,-97.7619927577,Apartment,1.0,1.0,2.0,4.0,1090,South Lamar Boulevard,78704
279,200.0,2016-04-08,30.2891737367,-97.7512327808,Apartment,1.0,1.0,1.0,4.0,2408,Longview Street,78705
280,624.0,2015-10-25,30.2609214145,-97.7597911894,House,2.5,3.0,5.0,10.0,1501,Barton Springs Road,78704
281,90.0,2016-08-21,30.2549862791,-97.7645009464,Apartment,1.0,1.0,1.0,4.0,1324,Lamar Square Drive,78704
282,90.0,2015-10-25,30.2879752028,-97.7451738713,Apartment,1.0,1.0,1.0,1.0,700,West 24th Street,78705
284,200.0,2016-03-27,30.2940261393,-97.7446322117,Apartment,1.0,1.0,1.0,2.0,2810,Rio Grande Street,78705
285,500.0,2016-04-28,30.2534056613,-97.7744991617,House,1.0,2.0,2.0,6.0,2001,Rundell Place,78704
286,745.0,2015-11-01,30.2585725059,-97.7728100571,House,2.0,2.0,2.0,4.0,1306,Robert E Lee Road,78704
287,5500.0,2015-10-31,30.284022189,-97.7478290696,Apartment,2.0,4.0,4.0,10.0,1905,San Gabriel Street,78705
288,300.0,2016-03-27,30.2897394074,-97.7503986947,Apartment,2.0,3.0,3.0,4.0,2505,Longview Street,78705
289,209.0,2016-04-18,30.2847953073,-97.7505831322,Apartment,1.5,2.0,3.0,6.0,1906,David Street,78705
290,105.0,2016-01-12,30.2876678396,-97.7501025727,Apartment,1.0,0.0,1.0,2.0,2313,Longview Street,78705
291,750.0,2015-10-25,30.2575057991,-97.7655246235,House,2.0,4.0,4.0,8.0,1604,Dexter Street,78704
292,3100.0,2015-10-25,30.2577538119,-97.7635406903,House,1.0,1.0,1.0,2.0,903,Ethel Street,78704
293,125.0,2015-10-28,30.2598304667,-97.7642310801,House,1.0,1.0,1.0,2.0,1606,Juliet Street,78704
294,350.0,2015-10-25,30.2534941603,-97.7634516499,Apartment,1.0,1.0,2.0,4.0,1320,South Lamar Boulevard,78704
295,700.0,2015-10-25,30.2501534779,-97.7697179143,House,1.0,0.0,2.0,2.0,2004,Kinney Avenue,78704
296,160.0,2016-03-27,30.2849226541,-97.7455064785,Apartment,1.0,0.0,2.0,3.0,701,West 22nd Street,78705
297,100.0,2015-10-25,30.286617126,-97.7447243133,Apartment,1.0,1.0,1.0,2.0,653,West 23rd Street,78705
298,150.0,2016-08-21,30.253689794,-97.7701751272,House,1.0,2.0,3.0,6.0,1700,Garner Avenue,78704
299,1200.0,2015-10-25,30.2935753055,-97.7368985421,Apartment,2.0,2.0,2.0,4.0,201,East 30th Street,78705
300,1300.0,2016-08-03,30.2855721893,-97.7205063037,House,1.0,1.0,1.0,2.0,2900,French Place,78722
302,90.0,2016-01-12,30.2475650919,-97.7525299943,House,1.0,1.0,1.0,2.0,206,West Milton Street,78704
304,55.0,2016-04-20,30.2379780942,-97.7570226406,House,1.0,1.0,1.0,2.0,2507,Euclid Avenue,78704
307,250.0,2016-01-25,30.244612392,-97.7526390051,House,2.0,2.0,2.0,4.0,150,West Johanna Street,78704
308,119.0,2016-02-12,30.2547376193,-97.7473422585,Apartment,1.0,1.0,1.0,4.0,907,South Congress Avenue,78704
309,745.0,2016-08-03,30.2464322548,-97.7511271951,Apartment,1.0,1.0,2.0,4.0,1718,South Congress Avenue,78704
310,100.0,2016-05-20,30.2822759188,-97.7607374654,Apartment,1.0,1.0,1.0,2.0,1629,Palma Plaza,78703
311,200.0,2015-10-25,30.2853150816,-97.7610121025,Apartment,1.0,2.0,2.0,6.0,1715,Summit View Place,78703
312,1800.0,2016-04-30,30.2409513722,-97.7302919841,House,1.0,1.0,1.0,2.0,1500,Royal Crest Drive,78741
313,199.0,2016-03-25,30.267192975,-97.7557732351,Apartment,1.0,0.0,1.0,2.0,101,North Lamar Boulevard,78701
314,60.0,2016-04-04,30.2190597621,-97.86755345,House,1.0,1.0,1.0,2.0,7814,Wheel Rim Circle,78749
315,164.0,2016-04-18,30.2444049674,-97.7461465622,House,1.0,1.0,1.0,2.0,513,East Annie Street,78704
316,55.0,2015-10-25,30.246375984,-97.7495429662,House,,1.0,1.0,2.0,1705,Nickerson Street,78704
317,65.0,2016-08-04,30.2274240387,-97.7343103704,Apartment,1.0,1.0,1.0,4.0,2408,Douglas Street,78741
318,30.0,2016-01-25,30.22837222,-97.7416836464,House,1.0,1.0,1.0,3.0,2703,Mulford Cove,78741
320,575.0,2015-10-25,30.2529732558,-97.7691474469,Apartment,1.0,0.0,2.0,2.0,1618,Nash Avenue,78704
321,3250.0,2015-08-25,30.2586352201,-97.7598126402,House,1.0,2.0,3.0,6.0,700,South Lamar Boulevard,78704
322,46.0,2016-03-25,30.2977726847,-97.733182399,House,1.0,1.0,1.0,1.0,3405,Grooms Street,78705
324,125.0,2016-03-27,30.2777547033,-97.757313679,House,1.0,0.0,3.0,4.0,1000,Lorrain Street,78703
325,130.0,2016-04-17,30.2742554788,-97.7527806755,Apartment,1.0,1.0,1.0,3.0,902,North Lamar Boulevard,78703
326,80.0,2016-04-08,30.2395853229,-97.730920875,Apartment,1.0,1.0,1.0,1.0,1600,Royal Crest Drive,78741
327,78.0,2016-04-02,30.2383096752,-97.7349304888,House,1.0,1.0,1.0,2.0,1708,Deerfield Drive,78741
328,40.0,2015-10-25,30.2261601449,-97.7541230934,Apartment,1.0,1.0,1.0,2.0,3401,Willowrun Cove,78704
329,150.0,2015-11-01,30.2771094024,-97.7188195896,House,1.0,0.0,1.0,2.0,2004,East 16th Street,78702
330,80.0,2016-03-25,30.2289507803,-97.7491377836,Apartment,1.0,1.0,1.0,2.0,921,Saint Edwards Drive,78704
331,3599.0,2016-01-25,30.2665911783,-97.7329755651,Apartment,2.0,2.0,2.0,4.0,900,East 7th Street,78702
333,129.0,2016-04-18,30.2339721068,-97.7468594627,House,1.0,2.0,2.0,4.0,805,East Oltorf Street,78704
335,75.0,2016-08-03,30.2805979197,-97.7118813331,House,1.0,1.0,1.0,2.0,1807,Ulit Avenue,78702
336,67.0,2016-05-04,30.2649916093,-97.7330641583,Apartment,1.0,0.0,1.0,2.0,917,East 6th Street,78702
337,40.0,2016-08-03,30.2719154881,-97.7147472715,House,1.0,1.0,1.0,2.0,1161,Chestnut Avenue,78702
338,59.0,2015-10-25,30.2243127394,-97.7552590176,Apartment,1.0,0.0,1.0,2.0,3446,Willowrun Drive,78704
339,110.0,2016-03-27,30.3042300398,-97.7178818601,House,1.0,0.0,1.0,4.0,1010,East 45th Street,78751
340,145.0,2015-10-25,30.3048716541,-97.7205331408,House,1.5,1.0,1.0,2.0,809,East 45th Street,78751
341,60.0,2016-08-03,30.3034222426,-97.7197643913,House,1.0,1.0,1.0,2.0,907,Ellingson Lane,78751
342,85.0,2016-01-25,30.3026347058,-97.7196857094,Apartment,1.0,0.0,1.0,2.0,1001,East 44th Street,78751
343,60.0,2015-08-17,30.3032871926,-97.7212542072,House,1.0,1.0,1.0,2.0,809,East 44th Street,78751
345,139.0,2016-03-27,30.3097043653,-97.7130113119,House,1.0,2.0,2.0,4.0,943,East 50th Street,78751
346,1650.0,2015-10-25,30.3072559557,-97.7173742451,House,1.0,0.0,2.0,4.0,4624,Depew Avenue,78751
347,120.0,2015-10-25,30.309072316,-97.7178182327,House,1.0,1.0,1.0,2.0,806,East 48th Street,78751
348,89.0,2016-08-04,30.2529192612,-97.7463948575,House,1.0,1.0,1.0,2.0,1006,Melissa Lane,78704
349,500.0,2015-10-25,30.2513567023,-97.7433439719,Apartment,2.0,1.0,1.0,2.0,507,Academy Drive,78704
350,70.0,2016-08-04,30.2243514626,-97.7376903274,House,1.5,1.0,1.0,3.0,2800,Metcalfe Road,78741
355,565.0,2015-10-25,30.2512605599,-97.771728214,Apartment,1.0,0.0,1.0,2.0,2004,Goodrich Avenue,78704
356,2850.0,2016-01-25,30.2752682135,-97.7578438314,Apartment,1.0,1.0,1.0,3.0,803,Winflo Drive,78703
360,700.0,2015-10-25,30.2483956862,-97.776505227,Apartment,1.0,1.0,1.0,4.0,2300,Bluebonnet Lane,78704
361,62.0,2016-08-27,30.2832723321,-97.7009354818,House,1.0,1.0,1.0,2.0,1904,Pershing Drive,78723
362,275.0,2016-08-27,30.2457158465,-97.7634729585,House,3.5,3.0,4.0,6.0,2107,South 5th Street,78704
363,68.0,2016-08-27,30.2413736036,-97.752412276,House,1.0,1.0,1.0,2.0,2201,South Congress Avenue,78704
364,70.0,2016-08-27,30.3205425327,-97.7260335881,Apartment,1.0,1.0,1.0,2.0,507,Franklin Boulevard,78751
400,129.0,2016-04-28,30.2316435945,-97.7374963326,Apartment,1.0,2.0,2.0,3.0,2314,Parker Lane,78741
401,49.0,2015-10-31,30.2265892971,-97.7383025468,House,1.0,1.0,1.0,2.0,2009,Carlson Drive,78741
402,100.0,2015-10-31,30.1596218659,-97.835761235,House,1.0,1.0,1.0,1.0,2104,Coats Cove,78748
403,2500.0,2016-03-27,30.2628948349,-97.7601497721,House,3.5,4.0,4.0,10.0,1518,Barton Springs Road,78704
404,5200.0,2015-10-25,30.2511879459,-97.7698934907,House,3.0,4.0,7.0,8.0,1608,Hether Street,78704
405,3750.0,2015-11-09,30.254724623,-97.7750091827,House,1.0,2.0,3.0,6.0,2101,Ford Street,78704
406,110.0,2015-10-25,30.2613542188,-97.7640389694,Apartment,1.5,1.0,2.0,3.0,1702,Linscomb Avenue,78704
408,300.0,2015-10-28,30.2981821708,-97.7452074168,House,1.0,2.0,3.0,4.0,811,West 30th Street,78705
410,91.0,2016-08-21,30.2489375818,-97.7771774916,House,1.0,2.0,2.0,2.0,2008,De Verne Street,78704
411,250.0,2015-11-01,30.2541187861,-97.7669187305,House,1.0,2.0,2.0,4.0,1507,Kinney Avenue,78704
412,200.0,2015-10-25,30.2562801326,-97.7614595884,Apartment,1.0,1.0,1.0,3.0,912,Texas 343 Loop,78704
413,800.0,2016-03-27,30.2980992916,-97.730996294,House,2.0,3.0,3.0,6.0,404,East 35th Street,78705
414,600.0,2016-08-21,30.255062706,-97.7732536509,House,2.0,3.0,4.0,6.0,2012,Peach Tree Street,78704
415,450.0,2016-04-18,30.2589055635,-97.7619299102,House,1.0,2.0,3.0,6.0,708,Jessie Street,78704
416,100.0,2016-04-18,30.2498227736,-97.7720463688,House,1.0,1.0,1.0,1.0,2017,Goodrich Avenue,78704
417,300.0,2015-12-15,30.2584591483,-97.7699209783,House,2.0,3.0,3.0,8.0,1109,Bluebonnet Lane,78704
419,375.0,2015-10-25,30.2920092949,-97.7437802558,Apartment,1.0,1.0,2.0,2.0,2707,Rio Grande Street,78705
420,1950.0,2015-10-25,30.2523234782,-97.7723088621,Apartment,1.0,1.0,1.0,3.0,1810,Hether Street,78704
421,450.0,2015-10-25,30.2905016688,-97.7466450976,Apartment,3.0,4.0,4.0,6.0,2508,Pearl Street,78705
422,595.0,2015-10-25,30.2608305462,-97.7621274809,House,2.0,3.0,3.0,6.0,601,Kinney Avenue,78704
423,750.0,2015-10-28,30.2539964619,-97.7665943644,House,2.5,3.0,3.0,8.0,1507,Kinney Avenue,78704
424,150.0,2016-03-27,30.2495551001,-97.7715035217,Apartment,1.0,1.0,1.0,3.0,2102 1/2,Oxford Avenue,78704
425,125.0,2015-10-25,30.2977135869,-97.7378619049,House,1.0,1.0,1.0,2.0,202,West 32nd Street,78705
426,2500.0,2015-10-25,30.2583781572,-97.7660234621,House,3.5,4.0,6.0,8.0,1707,Treadwell Street,78704
427,150.0,2016-03-27,30.2970372685,-97.7331856619,Apartment,1.0,1.0,2.0,3.0,305,East 34th Street,78705
428,125.0,2016-04-18,30.2958223127,-97.7386173583,House,1.5,1.0,1.0,2.0,3011,Whitis Avenue,78705
430,90.0,2016-04-18,30.300160264,-97.7330323417,Apartment,1.0,1.0,1.0,3.0,105,East 38th Street,78705
431,129.0,2016-04-28,30.2918492725,-97.73448289,Apartment,1.0,1.0,1.0,3.0,415,East 30th Street,78705
432,300.0,2015-10-25,30.2931397147,-97.7443695799,Apartment,1.0,1.0,1.0,2.0,701,West 28th Street,78705
433,995.0,2015-10-25,30.30218748,-97.7414273784,House,1.0,1.0,1.0,3.0,707,West 35th Street,78705
434,300.0,2016-04-18,30.2551990781,-97.7664263584,House,1.0,1.0,2.0,4.0,1302,Kinney Avenue,78704
435,200.0,2016-04-18,30.2881459533,-97.7522506398,Apartment,1.0,1.0,1.0,2.0,1301,West 24th Street,78705
436,99.0,2016-03-27,30.2903956624,-97.7421389493,Apartment,2.0,1.0,1.0,2.0,2506,San Antonio Street,78705
437,4200.0,2015-10-25,30.2534078666,-97.7736884285,Apartment,1.0,1.0,1.0,2.0,2006,Rundell Place,78704
440,4000.0,2015-11-01,30.2520781294,-97.7789628793,House,2.5,3.0,7.0,8.0,2111,Rabb Road,78704
441,275.0,2015-10-25,30.2943451715,-97.7343543426,Apartment,1.0,2.0,2.0,5.0,3109,Walling Drive,78705
442,750.0,2015-10-25,30.2548924761,-97.7630818333,Apartment,1.0,1.0,1.0,2.0,1312,Lamar Square Drive,78704
443,2395.0,2015-10-25,30.2545600091,-97.7755103619,House,1.0,1.0,1.0,4.0,1715,Norris Drive,78704
444,100.0,2016-04-08,30.2982128438,-97.7326956762,Apartment,1.0,1.0,1.0,2.0,303,East 35th Street,78705
445,48.0,2016-04-18,30.2923312913,-97.7352683046,Apartment,1.0,1.0,1.0,2.0,2901,San Jacinto Boulevard,78705
446,695.0,2015-10-25,30.2871177377,-97.7523206256,Apartment,1.0,2.0,2.0,4.0,2303,Shoal Creek Boulevard,78705
447,1302.0,2015-10-25,30.2900476612,-97.7476199248,Apartment,0.5,1.0,1.0,4.0,2505,San Gabriel Street,78705
448,54.0,2016-04-18,30.2488536814,-97.7754904653,House,1.0,1.0,1.0,2.0,1907,Rabb Glen Street,78704
449,275.0,2015-10-25,30.2870921675,-97.7476672452,Apartment,1.0,0.0,1.0,3.0,915,West 23rd Street,78705
450,4000.0,2016-01-12,30.258606512,-97.7663614215,House,3.0,4.0,4.0,8.0,1707,Treadwell Street,78704
451,6000.0,2015-11-01,30.2549405235,-97.7715240248,House,3.0,2.0,2.0,5.0,1908,Anita Drive,78704
452,1380.0,2015-10-25,30.2601466774,-97.7691532145,House,2.0,2.0,2.0,6.0,905,Bluebonnet Lane,78704
453,350.0,2015-10-25,30.258190046,-97.7647699631,House,1.0,1.0,1.0,2.0,906,Kinney Avenue,78704
454,329.0,2016-03-27,30.2496515889,-97.7783669374,House,2.0,3.0,3.0,6.0,2104,De Verne Street,78704
455,750.0,2015-10-25,30.260030709,-97.7643563065,House,2.5,3.0,4.0,6.0,1610,Juliet Street,78704
456,855.0,2015-10-25,30.2905742436,-97.744448242,Apartment,1.0,1.0,1.0,2.0,2512,Rio Grande Street,78705
457,459.0,2016-03-27,30.2584679193,-97.7629150766,House,3.0,4.0,4.0,8.0,805,Ethel Street,78704
458,380.0,2016-03-27,30.2766589154,-97.7598292471,Apartment,1.0,1.0,1.0,4.0,801,Highland Avenue,78703
459,100.0,2016-04-17,30.2768876551,-97.752415616,House,1.0,1.0,1.0,5.0,1195,Baylor Street,78703
460,129.0,2016-04-18,30.2799548231,-97.7656829959,Townhouse,1.0,1.0,1.0,2.0,803,Theresa Avenue,78703
461,170.0,2016-03-27,30.2781079246,-97.7579847592,House,1.5,2.0,3.0,7.0,1400,West 10th Street,78703
462,450.0,2015-11-01,30.2770435664,-97.7669299518,Apartment,2.0,3.0,4.0,8.0,1804,West 6th Street,78703
463,2200.0,2015-10-25,30.2756064818,-97.7549956075,House,1.0,1.0,2.0,4.0,1115,West 10th Street,78703
464,4000.0,2015-10-25,30.2745881225,-97.7589937196,House,1.0,2.0,2.0,4.0,700,Winflo Drive,78703
465,632.0,2016-08-21,30.2756776572,-97.7591031925,House,3.0,2.0,4.0,5.0,710,Pressler Street,78703
466,350.0,2015-10-25,30.2718996623,-97.7541076843,Apartment,2.5,2.0,3.0,4.0,606,North Lamar Boulevard,78703
468,3906.0,2015-10-25,30.2735599892,-97.7616144418,Apartment,1.0,1.0,1.0,4.0,1501,West 6th Street,78703
469,58.0,2016-03-25,30.2689759315,-97.7566701185,Apartment,1.0,1.0,1.0,1.0,218,North Lamar Boulevard,78703
470,200.0,2016-08-21,30.2765671852,-97.755301616,House,1.0,2.0,3.0,5.0,1205,West 10th Street,78703
471,450.0,2016-08-21,30.2729881676,-97.7571322755,House,2.0,4.0,6.0,16.0,1200,West 6th Street,78703
474,427.0,2016-03-27,30.2744176312,-97.7592626094,Apartment,1.0,1.0,2.0,4.0,614,Winflo Drive,78703
475,950.0,2016-08-21,30.271978903,-97.7539323381,Apartment,2.0,4.0,4.0,8.0,606,North Lamar Boulevard,78703
476,285.0,2016-03-27,30.2772019648,-97.7571349351,House,2.0,3.0,4.0,6.0,1311,West 10th Street,78703
477,3150.0,2015-10-25,30.2750499401,-97.758702457,Apartment,1.0,0.0,1.0,2.0,766,Winflo Drive,78703
478,750.0,2015-10-25,30.2773541948,-97.7595409763,Apartment,1.0,2.0,1.0,3.0,1504,West 9th Street,78703
479,350.0,2015-10-25,30.2745191317,-97.7596769595,House,2.5,2.0,2.0,6.0,607,Pressler Street,78703
480,80.0,2016-03-27,30.274544629,-97.7645900448,Apartment,1.0,1.0,2.0,2.0,105,West 5th Street,78703
481,1400.0,2015-10-31,30.2703384847,-97.7555415363,Apartment,2.0,2.0,2.0,4.0,1011,West 5th Street,78703
482,1400.0,2015-10-25,30.2761738923,-97.7582119696,House,3.0,4.0,6.0,6.0,1315,West 9th Street,78703
483,2250.0,2015-10-28,30.2217775591,-97.7345030887,House,1.5,2.0,2.0,4.0,3004,Burleson Road,78741
484,1250.0,2015-10-25,30.2243589266,-97.7447245853,Apartment,1.0,1.0,1.0,4.0,3405,North Interstate 35 Frontage Road,78704
485,71.0,2015-10-25,30.2265719085,-97.7346338207,Apartment,1.0,1.0,1.0,4.0,2502,Douglas Street,78741
486,125.0,2015-10-25,30.2258335084,-97.7383271064,House,1.5,1.0,1.0,2.0,2813,Stock Drive,78741
487,250.0,2015-10-25,30.2313351627,-97.7362774793,Apartment,1.0,1.0,1.0,2.0,20,Burleson Road,78741
488,300.0,2015-11-01,30.2237788787,-97.7401271885,Apartment,2.0,2.0,2.0,5.0,1909,Wickshire Lane,78741
489,60.0,2016-08-21,30.2293787849,-97.7406272854,House,1.0,1.0,1.0,2.0,1706,Alleghany Drive,78741
490,89.0,2016-08-21,30.2239137165,-97.7397946991,Apartment,1.0,1.0,1.0,4.0,1910,Wickshire Lane,78741
492,825.0,2015-10-25,30.251989015,-97.7774913956,House,1.0,1.0,1.0,4.0,2100,Paramount Avenue,78704
493,999.0,2015-10-25,30.2570050089,-97.7727449795,House,1.0,1.0,1.0,2.0,1400,Burford Place,78704
494,155.0,2015-10-25,30.2561008737,-97.7668062507,Apartment,1.0,1.0,2.0,4.0,1606,Dywer Avenue,78704
495,200.0,2016-03-27,30.2774403836,-97.7620028863,Apartment,1.0,2.0,3.0,8.0,1611,West 9th Street,78703
497,160.0,2015-11-01,30.2715740293,-97.7640449338,House,1.0,2.0,2.0,5.0,1585,West Cesar Chavez Street,78701
498,1000.0,2015-10-25,30.2766780066,-97.7592461153,Apartment,2.0,2.0,2.0,6.0,803,Oakland Avenue,78703
499,999.0,2015-10-28,30.2708583075,-97.7549558916,Apartment,2.0,2.0,2.0,6.0,500,North Lamar Boulevard,78703
500,129.0,2015-10-25,30.2725461809,-97.7377729914,House,1.0,1.0,2.0,4.0,313,East 12th Street,78701
505,1700.0,2015-10-25,30.2808650205,-97.7582301831,House,1.0,2.0,2.0,4.0,1221,West Lynn Street,78703
507,550.0,2015-10-28,30.2925754448,-97.7459977766,Apartment,1.0,2.0,2.0,4.0,2704,San Pedro Street,78705
509,550.0,2015-10-25,30.3071528325,-97.7294814507,Apartment,1.0,1.0,2.0,3.0,4344,Speedway,78751
510,7500.0,2015-11-01,30.2488895014,-97.7528711337,House,2.5,3.0,3.0,5.0,1512,Newton Street,78704
517,2200.0,2015-10-25,30.2969132366,-97.7311508312,House,1.0,0.0,1.0,2.0,3402,Duval Street,78705
520,750.0,2015-10-25,30.2541239854,-97.7572234474,House,2.0,3.0,3.0,6.0,902,West James Street,78704
524,900.0,2015-10-28,30.249644971,-97.7546917789,House,1.0,1.0,1.0,2.0,1503,South 1st Street,78704
529,172.0,2015-10-25,30.2425629732,-97.7606882331,Apartment,1.0,1.0,2.0,4.0,700,West Oltorf Street,78704
542,600.0,2016-03-27,30.2333287143,-97.7851048021,House,3.0,3.0,3.0,6.0,4005,Manchaca Road,78704
543,1700.0,2015-10-25,30.2342398455,-97.7861861338,Apartment,1.0,1.0,3.0,5.0,3908,Manchaca Road,78704
544,499.0,2015-11-01,30.255170656,-97.7605452435,Apartment,1.0,1.0,1.0,2.0,1001,East 8th Street,78702
545,100.0,2016-04-18,30.2412748841,-97.7849396922,Apartment,1.0,0.0,1.0,2.0,3101,South Lamar Boulevard,78704
546,100.0,2016-08-15,30.2460316307,-97.7776735121,Apartment,1.0,1.0,1.0,3.0,2501,South Lamar Boulevard,78704
547,380.0,2015-10-25,30.301890087,-97.7275294902,House,1.0,1.0,1.0,2.0,501,East 41st Street,78751
549,250.0,2016-03-27,30.3072113667,-97.7333208529,House,2.0,2.0,2.0,4.0,4206,Avenue B,78751
551,250.0,2016-05-05,30.3060625806,-97.7271533311,House,1.0,2.0,3.0,4.0,4311,Avenue G,78751
552,150.0,2015-10-25,30.2404675609,-97.7726490091,House,1.0,1.0,1.0,2.0,1402,Waterloo Trail,78704
553,250.0,2016-03-27,30.2405066472,-97.7800116681,Townhouse,1.0,2.0,3.0,5.0,1911,Lightsey Road,78704
554,275.0,2016-04-20,30.2387527334,-97.7860704827,Apartment,1.0,2.0,2.0,6.0,3505,South Lamar Boulevard,78704
555,35.0,2016-08-15,30.2348165764,-97.7911581481,Apartment,1.0,1.0,1.0,3.0,4016,Victory Drive,78704
556,250.0,2016-03-27,30.3025196019,-97.7347368179,Apartment,1.0,1.0,3.0,5.0,209,West 39th Street,78751
557,490.0,2015-10-25,30.2333557198,-97.7781880679,House,1.0,1.0,1.0,3.0,1405,Valleyridge Circle,78704
558,120.0,2016-03-27,30.2915234735,-97.7275226714,Apartment,1.0,1.0,1.0,2.0,3200,Red River Street,78705
559,333.0,2016-08-15,30.2360702812,-97.7815075868,Apartment,1.5,2.0,3.0,4.0,3608,Winfield Cove,78704
560,200.0,2015-11-09,30.3063530401,-97.7228862699,Apartment,1.0,1.0,1.0,2.0,600,East 45th Street,78751
561,275.0,2016-03-27,30.2416261606,-97.7849538639,Apartment,1.0,0.0,1.0,2.0,3277,South Lamar Boulevard,78704
562,199.0,2016-03-25,30.2336689667,-97.7874328212,Apartment,1.0,1.0,1.0,4.0,2098,Bert Avenue,78704
563,150.0,2016-08-15,30.234862841,-97.7827047825,Apartment,1.5,1.0,1.0,1.0,3734B,Valley View Road,78704
564,150.0,2016-03-27,30.3055978649,-97.7217849635,House,1.0,1.0,1.0,1.0,705,East 45th Street,78751
565,149.0,2015-10-25,30.2378344668,-97.7844868819,Apartment,1.0,1.0,1.0,3.0,3622,Manchaca Road,78704
566,180.0,2016-03-27,30.3041296925,-97.7344599459,Apartment,1.0,1.0,1.0,2.0,303,West 40th Street,78751
567,150.0,2016-03-27,30.2420874565,-97.7747491038,House,1.5,1.0,1.0,2.0,2623,Kinney Oaks Court,78704
568,150.0,2016-03-27,30.2363801837,-97.7779955706,Townhouse,1.0,2.0,2.0,5.0,3402,South Oak Drive,78704
569,1100.0,2016-08-15,30.2340994114,-97.7854272765,Apartment,1.5,2.0,3.0,6.0,3911,Manchaca Road,78704
571,1000.0,2016-03-27,30.2415443512,-97.7783561622,House,3.0,4.0,5.0,6.0,2851,Del Curto Road,78704
572,650.0,2015-10-25,30.3021555998,-97.7351879533,House,1.0,1.0,2.0,3.0,4,West 38th 1/2 Street,78751
573,150.0,2015-10-25,30.2984038869,-97.7231086592,Apartment,1.0,2.0,2.0,3.0,3900,Red River Street,78751
574,650.0,2016-03-27,30.253310236,-97.7627723455,Apartment,1.0,1.0,2.0,4.0,1311,Texas 343 Loop,78704
575,250.0,2015-10-25,30.2370139052,-97.7863590278,Apartment,1.0,1.0,2.0,4.0,3737,Keats Drive,78704
576,100.0,2016-03-27,30.3043186958,-97.7181097504,Apartment,1.0,1.0,1.0,3.0,1000,East 45th Street,78751
577,172.0,2015-10-28,30.2615293307,-97.730630406,House,1.0,2.0,2.0,4.0,307,Attayac Street,78702
578,800.0,2015-10-28,30.2492052036,-97.7909369667,House,3.0,4.0,5.0,7.0,2728,Tether Trail,78704
579,499.0,2015-11-01,30.2443171293,-97.7880040056,House,2.0,2.0,2.0,6.0,3310,Westhill Drive,78704
580,3400.0,2015-10-25,30.3181867721,-97.7176313984,House,2.0,3.0,3.0,6.0,5408,Duval Street,78751
581,3250.0,2015-10-25,30.2589641897,-97.7755116545,Apartment,1.0,2.0,4.0,6.0,2401,Spring Creek Drive,78704
582,609.0,2015-11-01,30.319707082,-97.7268712943,House,3.0,4.0,6.0,10.0,5215,West North Loop Boulevard,78751
584,1250.0,2015-11-01,30.2526005948,-97.7794718756,House,3.0,4.0,5.0,8.0,2302,Fortune Drive,78704
586,2100.0,2016-05-23,30.259462453,-97.7814712065,House,3.5,4.0,5.0,10.0,1808,Brookhaven Drive,78704
588,350.0,2015-09-28,30.2396795773,-97.7901030937,Apartment,1.0,1.0,1.0,6.0,3600,South Lamar Boulevard,78704
589,425.0,2016-03-27,30.2535416246,-97.7928868088,House,2.0,3.0,2.0,6.0,2600,Forest Bend Drive,78704
590,1000.0,2015-10-25,30.2623938782,-97.7855518309,Apartment,2.5,2.0,2.0,5.0,1229,Spyglass Drive,78746
592,85.0,2016-04-18,30.2377536808,-97.7574101753,Apartment,1.0,1.0,3.0,5.0,2513,Euclid Avenue,78704
593,100.0,2016-08-15,30.2594349494,-97.7895853908,Apartment,1.0,2.0,3.0,4.0,2909,Barton Skyway,78746
594,1550.0,2016-03-27,30.2578379294,-97.7780510351,House,4.0,5.0,6.0,12.0,1705,Cliffside Drive,78704
595,450.0,2016-04-28,30.2450653517,-97.7850455614,House,3.0,3.0,3.0,6.0,2335,Westoak Drive,78704
596,295.0,2016-03-27,30.2520675092,-97.7820416846,House,2.0,3.0,3.0,6.0,2418,Rock Terrace Circle,78704
597,160.0,2016-05-23,30.2699200122,-97.7309304867,House,1.5,2.0,3.0,6.0,908,East 11th Street,78702
598,35.0,2016-08-15,30.2717170582,-97.7273445756,House,1.0,1.0,1.0,1.0,1191,Navasota Street,78702
600,6500.0,2015-10-28,30.2475751257,-97.7627550983,House,1.0,1.0,1.0,2.0,1001,West Johanna Street,78704
601,150.0,2016-03-27,30.252180041,-97.7597381546,House,1.0,2.0,2.0,4.0,1000,Jewell Street,78704
602,2500.0,2016-01-25,30.2368783536,-97.7675463633,House,1.5,2.0,3.0,4.0,1001,Terrell Hill Drive,78704
603,75.0,2016-03-27,30.2350642132,-97.7693398518,House,1.0,1.0,1.0,2.0,902,Garden Villa Court,78704
604,231.0,2015-10-25,30.2422969797,-97.7631255001,House,1.0,2.0,2.0,5.0,2407,South 4th Street,78704
605,1100.0,2015-10-28,30.2371685661,-97.7341413699,House,2.5,1.0,1.0,2.0,1813,Sylvan Drive,78741
606,86.0,2016-01-25,30.2535010819,-97.7496065273,Apartment,2.0,1.0,1.0,3.0,200,Nellie Street,78704
609,95.0,2015-11-01,30.2324661969,-97.7330800635,Apartment,1.0,2.0,2.0,4.0,2090,Burton Drive,78741
610,39.0,2016-08-15,30.2908157134,-97.7160220435,Apartment,,,,2.0,1408,Concordia Avenue,78722
611,92.0,2016-05-04,30.2451657329,-97.7541306477,House,1.0,0.0,1.0,2.0,302,West Johanna Street,78704
612,1050.0,2015-08-25,30.2485639312,-97.7597143308,House,1.0,1.0,1.0,3.0,809,West Annie Street,78704
613,600.0,2015-10-25,30.2818639925,-97.7160253211,House,1.0,1.0,3.0,6.0,2003,Maple Avenue,78722
614,150.0,2016-08-15,30.246563372,-97.7561457294,House,1.0,2.0,2.0,4.0,534,West Mary Street,78704
615,79.0,2016-08-15,30.2998503334,-97.7282128615,Apartment,1.0,0.0,2.0,3.0,505,East 39th Street,78751
616,120.0,2015-10-28,30.2916134809,-97.7158124857,House,1.0,1.0,1.0,3.0,1414,East 37th Street,78722
617,600.0,2015-10-25,30.2404193488,-97.7315580843,Apartment,1.0,2.0,4.0,6.0,1263,Parker Lane,78741
618,250.0,2016-03-27,30.2830957655,-97.7170566532,House,1.0,1.0,2.0,4.0,2106,Maple Avenue,78722
619,125.0,2015-10-25,30.2553406463,-97.7580719655,House,1.0,2.0,2.0,6.0,1012,South 5th Street,78704
620,600.0,2015-10-25,30.2959966161,-97.7162641409,House,1.0,2.0,2.0,4.0,1301A,Kirkwood Road,78722
621,160.0,2016-01-25,30.2366415524,-97.7359916103,House,2.0,3.0,3.0,6.0,1705,Antler Drive,78741
622,375.0,2016-03-27,30.2895525779,-97.7152269357,House,1.0,1.0,1.0,2.0,1601,East 34th Street,78722
623,700.0,2016-04-18,30.2447156752,-97.7262545604,Apartment,2.0,2.0,3.0,6.0,1915,South Lakeshore Boulevard,78741
624,125.0,2016-08-15,30.1602875413,-97.8261877282,House,1.0,1.0,1.0,2.0,10636,Marshitahs Way,78748
626,950.0,2016-01-25,30.2828605386,-97.7208716269,House,2.5,3.0,3.0,7.0,2100,Poquito Street,78722
627,40.0,2016-04-18,30.2302568807,-97.726806163,Apartment,1.0,1.0,1.0,2.0,2200,Anken Drive,78741
628,350.0,2016-03-27,30.2978704593,-97.714947812,House,2.5,4.0,4.0,8.0,4105,Wildwood Road,78722
629,1000.0,2016-03-27,30.2871485446,-97.7150310293,House,1.5,3.0,3.0,6.0,3211,Hemlock Avenue,78722
630,145.0,2016-03-27,30.2477287273,-97.7647842849,House,1.0,2.0,3.0,6.0,2057,South 7th Street,78704
631,70.0,2016-01-15,30.2417422212,-97.7307431347,Apartment,1.0,1.0,2.0,4.0,1263,Parker Lane,78741
632,1700.0,2015-11-09,30.2451275762,-97.7681445641,House,1.0,3.0,3.0,5.0,1211,West Oltorf Street,78704
633,600.0,2016-03-27,30.2504219189,-97.7599170363,House,1.0,2.0,2.0,4.0,906,West Milton Street,78704
634,795.0,2016-03-27,30.2907054453,-97.716486116,House,2.0,3.0,3.0,6.0,1503,Concordia Avenue,78722
635,400.0,2015-10-25,30.2457808389,-97.755089797,House,1.0,3.0,4.0,6.0,403,West Mary Street,78704
636,85.0,2015-10-31,30.2605164967,-97.7558057134,Apartment,1.0,1.0,1.0,2.0,1110,Barton Springs Road,78704
637,179.0,2016-03-27,30.2431764312,-97.7600829126,House,1.0,2.0,3.0,4.0,2309,South 2nd Street,78704
638,350.0,2015-10-25,30.2426744019,-97.7246989833,Apartment,1.0,2.0,2.0,5.0,2223,Waterloo City Lane,78741
639,179.0,2016-04-18,30.2606290424,-97.7527750321,Apartment,1.0,2.0,2.0,5.0,900,Barton Springs Road,78704
640,245.0,2016-05-05,30.2833483106,-97.7046141448,House,2.0,3.0,3.0,6.0,2000,Airport Boulevard,78722
641,100.0,2016-04-20,30.238269299,-97.7360130452,House,2.5,1.0,1.0,2.0,1811,Matagorda Street,78741
642,1100.0,2016-03-27,30.2483176842,-97.7562635926,House,1.0,1.0,1.0,2.0,1619,South 2nd Street,78704
643,69.0,2016-08-15,30.235080728,-97.7403025395,Apartment,1.0,1.0,1.0,2.0,2211,Interstate 35,78741
644,69.0,2016-04-18,30.2405118551,-97.7313769128,House,1.0,1.0,1.0,4.0,1263,Parker Lane,78741
645,3500.0,2015-10-25,30.2914646835,-97.7101582501,House,2.0,5.0,6.0,10.0,3901,Brookview Road,78722
647,200.0,2015-10-25,30.2836857429,-97.7146458794,Apartment,,1.0,,1.0,2607,Oaklawn Avenue,78722
648,100.0,2016-08-15,30.2448397774,-97.7302965867,Apartment,1.0,1.0,1.0,3.0,1705,South Lakeshore Boulevard,78741
649,420.0,2016-02-12,30.2845928428,-97.7189692821,House,1.0,1.0,1.0,2.0,2216,Manor Road,78722
651,379.0,2015-10-25,30.2885084991,-97.7132302563,House,2.5,2.0,2.0,6.0,3406,Larry Lane,78722
652,1550.0,2015-10-25,30.2466000199,-97.7662833944,Apartment,1.0,1.0,1.0,3.0,2130,Wirtz Avenue,78704
653,1400.0,2016-03-27,30.2433447671,-97.7318439069,House,1.0,1.0,1.0,2.0,1615,Lupine Lane,78741
700,87.0,2016-08-15,30.2526628735,-97.7469944671,Apartment,1.0,1.0,1.0,3.0,200,Academy Drive,78704
701,150.0,2016-03-27,30.2521020491,-97.749090798,Apartment,1.0,1.0,1.0,1.0,1206,South Congress Avenue,78704
702,3650.0,2015-10-25,30.2383643543,-97.762384636,House,2.5,3.0,4.0,6.0,600,Cumberland Road,78704
703,1200.0,2015-10-25,30.2440608577,-97.7595294054,House,3.0,3.0,4.0,7.0,2235,South 2nd Street,78704
704,700.0,2016-08-15,30.2443522217,-97.7649358415,House,3.5,1.0,1.0,2.0,1004,West Oltorf Street,78704
706,1250.0,2015-10-25,30.2359131134,-97.732780692,House,2.0,3.0,5.0,10.0,1803,Crooked Lane,78741
708,500.0,2016-03-27,30.2594609428,-97.7548550093,House,1.0,2.0,2.0,5.0,910,Daniel Drive,78704
709,745.0,2016-08-15,30.2901602263,-97.7108862654,House,1.0,3.0,3.0,4.0,1731,East 38th 1/2 Street,78722
710,149.0,2015-10-31,30.2477160399,-97.752693946,House,2.0,2.0,3.0,6.0,208,West Milton Street,78704
711,850.0,2016-03-27,30.2336407406,-97.7673412974,Townhouse,2.5,3.0,3.0,6.0,3200,South 1st Street,78704
712,199.0,2015-10-31,30.2333196485,-97.7280069077,Apartment,1.0,1.0,1.0,3.0,1905,Willow Creek Drive,78741
713,157.0,2016-08-15,30.2597557773,-97.7465452983,Apartment,1.0,0.0,1.0,2.0,112,Barton Springs Road,78704
714,95.0,2015-10-25,30.2382308391,-97.7208385612,Apartment,1.0,1.0,1.0,3.0,1600,South Pleasant Valley Road,78741
715,299.0,2015-10-25,30.244100106,-97.7258433684,Apartment,2.0,2.0,2.0,6.0,1100,Town Creek Drive,78741
716,850.0,2015-10-25,30.2553830949,-97.7574783734,House,2.5,3.0,3.0,5.0,1001,South 5th Street,78704
717,54.0,2016-08-15,30.2516358133,-97.7477154482,Apartment,1.0,1.0,1.0,2.0,3,Academy Drive,78704
718,411.0,2016-01-12,30.2416111101,-97.7575932438,House,2.5,4.0,3.0,8.0,310,West Oltorf Street,78704
719,800.0,2015-10-25,30.2309233058,-97.7257607538,Apartment,1.0,1.0,1.0,2.0,2300,South Pleasant Valley Road,78741
720,125.0,2015-10-25,30.2318766533,-97.7335388063,Apartment,,1.0,,2.0,2124,Burton Drive,78741
721,399.0,2015-11-05,30.2539459232,-97.755053714,House,2.0,3.0,4.0,6.0,1103,South 3rd Street,78704
722,300.0,2015-10-25,30.2495255121,-97.7591720308,House,3.0,5.0,7.0,10.0,1703,Bouldin Avenue,78704
723,150.0,2016-04-18,30.2565160256,-97.7466087906,Apartment,1.0,1.0,1.0,2.0,501,South Congress Avenue,78704
725,70.0,2015-10-28,30.2551951242,-97.7581560201,House,1.0,1.0,1.0,2.0,1100,South 5th Street,78704
726,3725.0,2016-03-27,30.2590387721,-97.7550630922,House,3.0,4.0,6.0,10.0,911,Daniel Drive,78704
727,1500.0,2016-03-27,30.2544360116,-97.7564764222,House,2.0,3.0,3.0,6.0,1100,Bouldin Avenue,78704
728,95.0,2016-06-13,30.249668947,-97.7559418163,House,1.0,1.0,1.0,2.0,613,West Monroe Street,78704
729,149.0,2016-03-27,30.2489024884,-97.7529719297,House,1.5,2.0,2.0,6.0,306,West Monroe Street,78704
730,3600.0,2015-12-08,30.2515756498,-97.7539266643,House,2.0,2.0,3.0,5.0,1209,South 1st Street,78704
732,137.0,2016-04-18,30.2320428044,-97.7323811965,Apartment,1.0,1.0,3.0,6.0,2121,Burton Drive,78741
733,2000.0,2016-04-22,30.2828520245,-97.7466087225,House,2.5,3.0,7.0,10.0,809,West Martin Luther King Junior Boulevard,78701
734,350.0,2016-03-27,30.2457128245,-97.7309382971,Apartment,2.0,2.0,2.0,6.0,1602,East Riverside Drive,78741
736,275.0,2016-03-27,30.2651047619,-97.7449131361,Apartment,2.0,2.0,2.0,4.0,203,Colorado Street,78701
737,150.0,2016-03-27,30.2662713838,-97.7386094927,Apartment,1.0,1.0,1.0,3.0,510,Neches Street,78701
738,125.0,2016-06-13,30.2677682895,-97.753076445,Apartment,1.0,1.0,2.0,3.0,211,Walter Seaholm Drive,78703
739,550.0,2015-10-25,30.244911772,-97.7329813261,House,1.0,3.0,4.0,6.0,1218,Summit Street,78741
741,60.0,2016-04-28,30.2341304662,-97.7387492272,Apartment,1.0,1.0,1.0,2.0,2211,South Interstate 35 Frontage Road,78741
742,100.0,2016-03-27,30.2822079279,-97.7470497253,Apartment,1.0,1.0,1.0,1.0,1802,West Avenue,78701
743,199.0,2016-08-15,30.2659731897,-97.7427205516,Apartment,1.0,1.0,3.0,3.0,147,East 4th Street,78701
744,395.0,2015-10-25,30.26431961,-97.7410746267,Apartment,2.0,4.0,6.0,10.0,305,East 3rd Street,78701
745,85.0,2016-08-15,30.2812944228,-97.7425609428,Apartment,1.0,1.0,1.0,4.0,411,West Martin Luther King Junior Boulevard,78701
746,600.0,2016-01-25,30.2661747188,-97.7425737781,Apartment,2.0,3.0,4.0,8.0,401,Congress Avenue,78701
747,250.0,2015-10-25,30.2556561678,-97.7469100868,Apartment,1.0,1.0,1.0,2.0,611,South Congress Avenue,78704
748,18.0,2016-08-15,30.2217399098,-97.7430706141,Apartment,1.0,1.0,1.0,1.0,3300,Parker Lane,78741
750,345.0,2016-04-18,30.2687087825,-97.7542016185,Apartment,2.0,2.0,2.0,5.0,787,West 3rd Street,78701
751,2000.0,2015-10-25,30.2752608841,-97.7492356673,House,3.0,5.0,5.0,10.0,1100,West Avenue,78701
752,195.0,2016-08-15,30.2600731541,-97.737692616,Apartment,1.0,1.0,2.0,4.0,91,Rainey Street,78701
753,5400.0,2015-10-25,30.2658345141,-97.7412444621,Apartment,2.0,3.0,3.0,6.0,400,San Jacinto Boulevard,78701
754,750.0,2015-10-25,30.2520857373,-97.7476281979,Apartment,1.0,1.0,1.0,2.0,110,Academy Drive,78704
755,119.0,2015-10-25,30.2800439278,-97.7456304922,Apartment,1.0,1.0,2.0,4.0,1601,Rio Grande Street,78701
756,1150.0,2016-02-12,30.2684830126,-97.7428883287,Apartment,1.0,1.0,3.0,4.0,600,Congress Avenue,78701
757,459.0,2015-10-31,30.2660747583,-97.7429212301,Apartment,2.5,4.0,5.0,10.0,112,East 4th Street,78701
758,300.0,2015-10-25,30.2394267918,-97.7524163317,Apartment,1.0,1.0,1.0,2.0,2301,Post Road,78704
759,200.0,2015-10-25,30.2661281591,-97.7417176566,Apartment,1.0,0.0,1.0,3.0,409,Brazos Street,78701
760,2070.0,2015-10-25,30.274272774,-97.7469753579,House,2.0,2.0,3.0,6.0,601,West 11th Street,78701
761,330.0,2015-10-19,30.2651208575,-97.7461558809,Apartment,2.0,2.0,2.0,4.0,400,West 2nd Street,78701
762,349.0,2015-10-25,30.2643496053,-97.7409349893,Apartment,2.0,3.0,3.0,8.0,305,East 3rd Street,78701
763,2846.0,2015-11-05,30.2669795588,-97.7555082086,Apartment,0.0,2.0,2.0,5.0,115,Sandra Muraida Way,78703
765,600.0,2016-02-12,30.2729539422,-97.747703473,Apartment,1.0,1.0,1.0,2.0,602,West 9th Street,78701
766,225.0,2015-10-25,30.2814414284,-97.7453525353,Apartment,1.0,1.0,1.0,3.0,2,West 18th Street,78701
767,339.0,2015-10-31,30.2664504255,-97.7420930392,House,2.5,4.0,6.0,8.0,401,Congress Avenue,78701
768,172.0,2016-05-05,30.2645247728,-97.7397817674,House,1.0,2.0,3.0,6.0,303,Trinity Street,78701
769,219.0,2015-10-25,30.2554884851,-97.7456917753,Apartment,1.0,0.0,1.0,4.0,127,East Riverside Drive,78704
771,80.0,2016-03-27,30.2800718527,-97.7455650831,Apartment,1.0,1.0,1.0,2.0,1601,Rio Grande Street,78701
773,75.0,2015-10-28,30.2551918388,-97.7465466708,Apartment,1.0,1.0,1.0,1.0,611,South Congress Avenue,78704
774,200.0,2016-03-27,30.2544136243,-97.7470888543,Apartment,1.0,2.0,2.0,6.0,907,South Congress Avenue,78704
776,650.0,2016-03-27,30.2533917214,-97.7471673452,Apartment,2.0,2.0,3.0,5.0,1005,South Congress Avenue,78704
777,2070.0,2015-11-05,30.2672702615,-97.7420834469,Apartment,1.0,2.0,4.0,6.0,120,East 5th Street,78701
778,2500.0,2015-10-31,30.2699307193,-97.7435760185,Apartment,1.0,1.0,3.0,5.0,702,Colorado Street,78701
780,825.0,2016-03-27,30.2684016071,-97.7533860123,Apartment,2.0,2.0,2.0,5.0,754,West 3rd Street,78701
781,85.0,2016-08-15,30.2518730269,-97.746301327,Apartment,2.0,2.0,2.0,4.0,188,Academy Drive,78704
782,750.0,2015-10-25,30.2405038971,-97.7546663563,House,2.0,2.0,2.0,6.0,126,West Oltorf Street,78704
783,1264.0,2016-08-15,30.2460954891,-97.7502724834,House,3.5,4.0,4.0,8.0,106,East Annie Street,78704
785,129.0,2016-01-25,30.2553686066,-97.7470454602,Apartment,1.0,0.0,1.0,3.0,611,South Congress Avenue,78704
787,500.0,2016-08-15,30.2655898874,-97.7498392629,Apartment,1.0,1.0,2.0,4.0,118,Nueces Street,78701
788,299.0,2015-10-25,30.2590663541,-97.7901343956,Apartment,1.0,1.0,1.0,2.0,31,Spyglass Drive,78746
789,3000.0,2015-10-25,30.2401500496,-97.7898887475,Apartment,1.0,1.0,1.0,2.0,3600,South Lamar Boulevard,78704
790,4200.0,2015-10-25,30.2440745501,-97.7851204495,House,2.0,3.0,5.0,7.0,2325,Westoak Drive,78704
791,315.0,2015-10-25,30.257499688,-97.7960531359,Apartment,2.0,2.0,2.0,7.0,2812,Bartons Bluff Lane,78746
792,550.0,2016-03-27,30.25429127,-97.7823943006,House,2.5,4.0,5.0,10.0,2100,Barton Hills Drive,78704
793,250.0,2015-10-25,30.2403719923,-97.789044259,Apartment,1.0,1.0,1.0,2.0,3600,South Lamar Boulevard,78704
794,199.0,2015-10-25,30.258610209,-97.783857932,House,1.0,1.0,1.0,2.0,1806,Glencliff Drive,78704
795,165.0,2016-04-22,30.232897991,-97.7462063844,House,2.0,2.0,2.0,5.0,1211,East Oltorf Street,78704
796,2100.0,2015-10-25,30.2564335037,-97.7787773757,Apartment,1.0,0.0,1.0,2.0,1805,Westridge Drive,78704
797,1400.0,2015-10-25,30.2608836107,-97.7752731581,Apartment,1.0,1.0,1.0,2.0,1303,Hollow Creek Drive,78704
798,500.0,2016-05-25,30.2603399972,-97.7748130574,Apartment,1.0,1.0,2.0,4.0,1215,Hollow Creek Drive,78704
799,2500.0,2015-10-25,30.2301341502,-97.7791118496,House,1.0,2.0,1.0,3.0,3909,Run of the Oaks Street,78704
801,129.0,2016-04-08,30.2623740883,-97.7315499598,Apartment,1.0,0.0,2.0,3.0,350,Waller Street,78702
802,350.0,2016-04-18,30.2622329653,-97.7341728071,House,1.0,1.0,1.0,2.0,907,East 3rd Street,78702
803,726.0,2015-12-08,30.2603081779,-97.7311451179,House,1.0,2.0,3.0,6.0,151,Attayac Street,78702
804,5000.0,2016-05-23,30.2589003267,-97.7266081965,House,1.0,3.0,3.0,6.0,1640A,East 2nd Street,78702
805,89.0,2015-09-28,30.2375609294,-97.7931023433,Apartment,1.0,1.0,2.0,4.0,4006,South Lamar Boulevard,78704
806,375.0,2016-03-27,30.2736448855,-97.7215196586,House,1.0,1.0,1.0,4.0,1704,East 12th Street,78702
808,238.0,2016-03-27,30.2501607579,-97.7945610318,House,2.0,3.0,3.0,6.0,2604,Bend Cove,78704
811,250.0,2015-11-01,30.2534068565,-97.7815163328,House,2.0,2.0,2.0,4.0,2107,Barton Parkway,78704
812,169.0,2016-04-20,30.2571506805,-97.7258531379,Apartment,1.0,0.0,2.0,4.0,1711,East Cesar Chavez Street,78702
813,195.0,2016-03-25,30.3137957636,-97.733500248,Apartment,1.0,1.0,2.0,3.0,500,West 46th Street,78751
814,1800.0,2015-10-25,30.274923277,-97.7160662715,House,1.0,1.0,1.0,2.0,1205,Chestnut Avenue,78702
815,55.0,2016-04-18,30.2565939172,-97.7323807419,House,1.0,1.0,1.0,2.0,64,Cross Street,78702
816,164.0,2016-03-27,30.258681944,-97.7142832307,Apartment,1.5,2.0,1.0,2.0,2505b,East 6th Street,78702
817,60.0,2016-08-15,30.2532799,-97.725162905,House,1.0,1.0,1.0,2.0,1912,Holly Street,78702
818,3219.0,2015-10-28,30.2601985333,-97.7326855959,Apartment,1.0,0.0,2.0,4.0,100,Waller Street,78702
819,350.0,2016-04-08,30.2550650193,-97.7334726258,House,1.0,1.0,2.0,4.0,1300,Haskell Street,78702
821,865.0,2015-10-25,30.2718785095,-97.7170601146,House,1.0,1.0,2.0,2.0,2105,Pennsylvania Avenue,78702
822,413.0,2016-08-15,30.276325214,-97.7191464983,House,3.5,3.0,3.0,10.0,1403,Poquito Street,78702
823,125.0,2015-10-25,30.2533021976,-97.7241640709,House,1.0,3.0,5.0,6.0,2007,Garden Street,78702
824,99.0,2015-10-31,30.2285196699,-97.7575471843,House,1.0,1.0,1.0,3.0,200,Woodward Street,78704
825,77.0,2016-04-18,30.2728810615,-97.7185132052,House,1.0,1.0,1.0,2.0,2003,New York Avenue,78702
826,125.0,2015-10-31,30.2245263207,-97.7575847513,Apartment,1.0,1.0,1.0,2.0,211,East Alpine Road,78704
827,100.0,2016-03-27,30.2583537953,-97.7249917682,House,1.0,1.0,1.0,2.0,1800,East 2nd Street,78702
828,200.0,2016-03-27,30.2250546401,-97.7531320317,Apartment,1.0,1.0,1.0,4.0,3466,Willowrun Drive,78704
830,1545.0,2015-10-25,30.2362838107,-97.7524785967,House,1.0,1.0,1.0,4.0,404,Long Bow Lane,78704
831,70.0,2016-04-18,30.2643709032,-97.7260065266,House,1.5,1.0,2.0,4.0,700,Comal Street,78702
832,3000.0,2015-10-28,30.2711430646,-97.7260797498,Apartment,1.0,1.0,1.0,3.0,1177,San Bernard Street,78702
833,200.0,2016-04-22,30.2648039188,-97.7220798599,House,2.5,3.0,2.0,6.0,900,Chicon Street,78702
834,100.0,2015-10-25,30.3199887707,-97.7164747562,House,1.0,1.0,1.0,2.0,400,East 56th Street,78751
835,225.0,2015-10-25,30.2698670249,-97.7180269141,House,2.0,2.0,2.0,6.0,2001,Rosewood Avenue,78702
836,80.0,2016-03-27,30.2298031374,-97.7618206312,Apartment,1.0,1.0,1.0,2.0,203,Lightsey Road,78704
837,2275.0,2015-10-25,30.2260938349,-97.7662232607,House,1.0,3.0,2.0,5.0,330,West Ben White Boulevard,78704
838,215.0,2015-10-25,30.2314711593,-97.766058114,Apartment,1.0,1.0,1.0,3.0,3527,South 1st Street,78704
840,129.0,2015-10-25,30.2832537029,-97.7613607908,Apartment,1.0,1.0,1.0,2.0,1708,Palma Plaza,78703
841,75.0,2016-03-27,30.2276900046,-97.7667330061,House,1.0,2.0,2.0,5.0,415,Post Road Drive,78704
842,69.0,2016-04-18,30.2630877052,-97.73319967,House,1.0,1.0,2.0,4.0,1001,East 4th Street,78702
843,300.0,2016-08-15,30.2334233884,-97.7602115,House,3.0,4.0,4.0,10.0,2912,Brinwood Avenue,78704
844,120.0,2016-01-25,30.2655176889,-97.7322436789,Apartment,1.0,1.0,2.0,3.0,601,San Marcos Street,78702
846,2700.0,2015-10-25,30.2843390014,-97.7604998122,Apartment,1.0,2.0,2.0,6.0,1506,Woodlawn Boulevard,78703
847,500.0,2015-10-25,30.2384007916,-97.7593198589,Apartment,2.5,2.0,3.0,6.0,2602,Wilson Street,78704
848,49.0,2016-03-27,30.272249847,-97.7179218096,House,1.0,1.0,1.0,2.0,2006,Pennsylvania Avenue,78702
849,1600.0,2015-10-25,30.228045779,-97.7466788762,House,1.0,2.0,2.0,4.0,1401,Saint Edwards Drive,78704
850,600.0,2015-10-25,30.2668224534,-97.7219454248,House,1.0,1.0,1.0,2.0,1712,East 11th Street,78702
851,75.0,2016-08-15,30.2721750892,-97.7233161949,House,1.0,1.0,1.0,2.0,1501,New York Avenue,78702
852,75.0,2016-03-27,30.2641193651,-97.7203735852,House,1.0,1.0,1.0,2.0,1910,East 9th Street,78702
853,2250.0,2015-10-25,30.2393709907,-97.7572114786,House,2.0,4.0,6.0,10.0,2414,Forest Avenue,78704
854,400.0,2016-03-27,30.2834006355,-97.7602823696,Apartment,1.0,2.0,2.0,5.0,1407,Woodlawn Boulevard,78703
855,300.0,2015-10-25,30.230702801,-97.7655634547,Apartment,1.0,1.0,1.0,3.0,3501,South 1st Street,78704
857,150.0,2016-04-17,30.2815680128,-97.7623680381,Apartment,1.0,1.0,1.0,2.0,1724,West 11th Street,78703
858,120.0,2015-10-25,30.2838704828,-97.7598425121,Apartment,1.0,1.0,1.0,4.0,1507,Woodlawn Boulevard,78703
859,6900.0,2015-10-25,30.2797276963,-97.759383089,House,2.0,3.0,5.0,7.0,1101,West Lynn Street,78703
860,661.0,2016-08-15,30.2791771653,-97.7511643869,House,2.0,3.0,4.0,8.0,1503,Parkway,78703
861,700.0,2015-10-25,30.2850780606,-97.7615256644,Apartment,2.0,2.0,2.0,4.0,1501,Hartford Road,78703
862,50.0,2015-10-28,30.2851729946,-97.7618547002,Apartment,1.0,1.0,1.0,2.0,1504,Hartford Road,78703
863,115.0,2015-10-25,30.248291034,-97.7372619767,Apartment,1.0,,1.0,2.0,1027,East Riverside Drive,78704
864,275.0,2015-10-25,30.2416691931,-97.7448410943,House,1.0,2.0,3.0,5.0,1903,Alameda Drive,78704
865,1800.0,2016-02-12,30.240923197,-97.7446527998,House,2.5,4.0,3.0,8.0,900,Rosedale Terrace,78704
867,199.0,2015-10-25,30.2406111608,-97.7412086861,House,1.0,2.0,2.0,5.0,1102,Gillespie Place,78704
868,490.0,2016-03-25,30.2360828121,-97.7428492598,House,2.0,3.0,3.0,6.0,2101,Sage Creek Loop,78704
869,500.0,2015-10-31,30.2585565957,-97.7443351281,Apartment,1.0,1.0,1.0,2.0,305,South Congress Avenue,78704
870,120.0,2016-08-15,30.2416160914,-97.7503389352,Apartment,1.0,2.0,2.0,4.0,2111,Brackenridge Street,78704
871,200.0,2016-03-27,30.2532504943,-97.7484566917,Apartment,1.0,1.0,1.0,2.0,1100,South Congress Avenue,78704
872,725.0,2015-10-25,30.2361837479,-97.7673139719,House,2.5,3.0,3.0,10.0,3008,South 4th Street,78704
873,225.0,2015-12-08,30.2455430601,-97.7479075497,House,1.0,2.0,3.0,6.0,1709,Drake Avenue,78704
874,500.0,2015-10-25,30.2409447587,-97.7393265623,Apartment,2.0,3.0,3.0,6.0,1801,Fairlawn Lane,78704
876,640.0,2015-10-25,30.251352897,-97.7455188398,Apartment,1.0,2.0,2.0,6.0,1206,Hillside Avenue,78704
877,109.0,2016-04-21,30.229508408,-97.7717853146,House,2.5,3.0,3.0,5.0,3800,South 2nd Street,78704
878,3995.0,2015-10-28,30.2494465389,-97.7461263683,House,2.0,3.0,5.0,6.0,1355,Hillside Avenue,78704
879,89.0,2016-04-18,30.2529500128,-97.7421996879,Apartment,1.0,1.0,1.0,2.0,500,East Riverside Drive,78704
880,350.0,2015-10-25,30.2531307286,-97.7463968211,Apartment,2.0,2.0,3.0,6.0,1006,Melissa Lane,78704
881,1400.0,2016-03-27,30.238434141,-97.7469087601,House,3.5,3.0,4.0,8.0,2206,Alta Vista Avenue,78704
882,114.0,2016-08-15,30.250784572,-97.7494472707,Apartment,1.0,1.0,2.0,2.0,1306,South Congress Avenue,78704
883,545.0,2016-08-15,30.2361254773,-97.7414191119,House,2.5,3.0,3.0,6.0,2136,Sage Creek Loop,78704
884,650.0,2015-10-25,30.2501425806,-97.7450195337,Apartment,2.0,2.0,2.0,6.0,1314A,Newning Avenue,78704
885,2000.0,2015-10-28,30.2434648841,-97.7484458411,House,2.0,3.0,3.0,6.0,401,Lockhart Drive,78704
887,400.0,2016-04-18,30.2490567069,-97.7401053392,House,2.5,3.0,3.0,6.0,1205,Alta Vista Avenue,78704
888,250.0,2015-10-25,30.2906651606,-97.7156672513,House,1.0,1.0,2.0,4.0,1506,Concordia Avenue,78722
889,225.0,2015-10-25,30.2449834835,-97.7429866464,House,1.0,2.0,2.0,4.0,1602,Alta Vista Avenue,78704
890,56.0,2015-12-08,30.2865155487,-97.7127018266,House,1.0,1.0,1.0,1.0,3302,Merrie Lynn Avenue,78722
891,325.0,2016-08-15,30.2419805019,-97.7767675603,House,2.5,3.0,4.0,8.0,1805,Cinnamon Path,78704
892,350.0,2015-10-25,30.2330452209,-97.7874296123,Apartment,2.0,2.0,2.0,6.0,2007,Bert Avenue,78704
893,1600.0,2015-10-25,30.3063583856,-97.734993918,House,1.0,2.0,2.0,5.0,4102,Avenue A,78751
894,119.0,2015-10-25,30.303262578,-97.7305730891,House,1.0,1.0,2.0,2.0,4007,Avenue F,78751
895,300.0,2016-08-15,30.2451510854,-97.7714330095,House,2.5,2.0,2.0,4.0,2211,Thornton Road,78704
896,99.0,2015-10-28,30.2328429831,-97.7861747404,House,1.0,2.0,2.0,4.0,4015,Manchaca Road,78704
897,110.0,2016-08-15,30.3035421188,-97.7162387358,Apartment,1.5,2.0,2.0,4.0,1025,East 45th Street,78751
898,1333.0,2015-11-01,30.2579272202,-97.75974547,House,2.0,2.0,4.0,6.0,708,South Lamar Boulevard,78704
899,175.0,2016-04-18,30.3081486376,-97.7237012404,Apartment,1.0,1.0,2.0,4.0,4545,Duval Street,78751
900,975.0,2015-10-28,30.2506485039,-97.7271103515,House,1.0,1.0,1.0,2.0,1901,Jesse E. Segovia Street,78702
901,275.0,2016-04-20,30.2663075098,-97.7285146975,House,2.0,3.0,3.0,8.0,803,Lydia Street,78702
902,250.0,2015-10-25,30.2310873796,-97.7461902795,Apartment,1.5,1.0,3.0,5.0,2706,Saint Edwards Circle,78704
903,135.0,2015-10-28,30.2665657148,-97.7227220496,House,2.5,1.0,1.0,2.0,1000,Chalmers Avenue,78702
904,500.0,2015-10-25,30.2567518779,-97.7159568144,House,2.5,3.0,3.0,8.0,2411,Santa Maria Street,78702
905,175.0,2015-10-25,30.2721463221,-97.7191721225,House,1.0,3.0,3.0,6.0,1902,Pennsylvania Avenue,78702
906,185.0,2015-10-25,30.2699842242,-97.7169741532,House,2.0,2.0,2.0,4.0,2105,Rosewood Avenue,78702
907,250.0,2016-05-04,30.2714622279,-97.7264089371,House,2.0,2.0,2.0,5.0,1214,Cotton Street,78702
908,1150.0,2015-10-25,30.2744770069,-97.7269224308,House,1.0,1.0,1.0,2.0,1308,San Bernard Street,78702
909,480.0,2015-10-25,30.2257669273,-97.7532691248,Apartment,1.0,2.0,1.0,6.0,3467,Willowrun Drive,78704
910,75.0,2015-11-01,30.2770398404,-97.7182068912,House,1.0,1.0,2.0,4.0,2103,East 16th Street,78702
911,100.0,2016-08-15,30.31471318,-97.7104118589,House,1.5,1.0,1.0,2.0,5407,Bennett Avenue,78751
912,325.0,2016-05-23,30.2606996747,-97.7355476653,House,2.0,3.0,3.0,6.0,901,East Cesar Chavez Street,78702
913,413.0,2016-04-22,30.2570521118,-97.7168012379,House,2.5,3.0,3.0,6.0,306,Julian Teran Street,78702
914,179.0,2015-10-25,30.2659821383,-97.7173934077,House,2.0,2.0,2.0,6.0,1117,Prospect Avenue,78702
915,750.0,2015-10-25,30.3142788536,-97.7137503001,House,1.0,2.0,2.0,4.0,823,East 53rd 1/2 Street,78751
916,800.0,2016-08-15,30.2297448979,-97.7665715215,House,0.0,2.0,1.0,4.0,3625,South 1st Street,78704
917,500.0,2015-10-25,30.2389569087,-97.7605494184,Apartment,2.5,2.0,2.0,6.0,2607,Stacy Lane,78704
918,295.0,2016-03-27,30.2581800496,-97.7220000132,House,1.0,1.0,1.0,2.0,2007,East 3rd Street,78702
919,125.0,2016-01-25,30.2509314804,-97.7223113277,Apartment,1.0,1.0,2.0,3.0,2207,Haskell Street,78702
921,770.0,2015-09-14,30.2799703541,-97.7547144122,Apartment,1.0,2.0,3.0,6.0,1205,Enfield Road,78703
922,69.0,2015-10-25,30.257740135,-97.7255511005,House,1.0,1.0,1.0,2.0,1800,East Cesar Chavez Street,78702
923,400.0,2015-10-28,30.275646283,-97.7119207146,House,1.0,1.0,1.0,2.0,1207,Walnut Avenue,78702
924,39.0,2015-10-28,30.2707406799,-97.7152369981,House,1.0,1.0,1.0,1.0,1156,Chestnut Avenue,78702
925,300.0,2016-04-02,30.2639250791,-97.7331902781,Apartment,1.0,1.0,2.0,4.0,901,East 5th Street,78702
926,165.0,2015-10-28,30.2373534168,-97.7585754738,House,1.0,2.0,2.0,6.0,2607,Wilson Street,78704
927,899.0,2015-11-09,30.2667712012,-97.7303009049,Apartment,1.0,2.0,2.0,5.0,1012,East 8th Street,78702
928,300.0,2016-03-27,30.2675103638,-97.7218426535,House,1.0,2.0,2.0,4.0,1603,Gregory Street,78702
929,75.0,2016-04-08,30.254747565,-97.724771702,House,1.0,1.0,1.0,2.0,1913,Canterbury Street,78702
930,52.0,2015-10-25,30.2737557964,-97.7267713307,House,1.0,1.0,2.0,2.0,1300,San Bernard Street,78702
931,105.0,2015-10-25,30.2375755777,-97.7591618376,Apartment,1.0,1.0,2.0,4.0,2610,Wilson Street,78704
932,8500.0,2016-04-18,30.2800509602,-97.7549310301,House,3.5,4.0,7.0,8.0,1305,Lorrain Street,78703
933,1900.0,2015-10-28,30.2820089264,-97.7616083272,House,3.0,4.0,4.0,8.0,1703,Waterston Avenue,78703
934,200.0,2015-10-25,30.3139204663,-97.7342351738,Apartment,1.0,2.0,2.0,5.0,6107,Triangle Avenue,78751
935,100.0,2016-08-15,30.3229597853,-97.7245017978,House,1.0,1.0,1.0,2.0,5510,Guadalupe Street,78751
936,109.0,2016-08-15,30.2834500988,-97.7565660746,Apartment,1.0,1.0,4.0,6.0,1509,Murray Lane,78703
937,1099.0,2016-08-15,30.2811664718,-97.7544377777,House,5.0,7.0,15.0,16.0,102,Enfield Road,78703
938,1250.0,2016-03-27,30.2736073076,-97.7187929985,House,2.0,2.0,3.0,8.0,1197,Poquito Street,78702
939,125.0,2015-10-25,30.2328413833,-97.7652580759,House,1.0,1.0,1.0,2.0,3205,South 1st Street,78704
940,550.0,2015-10-28,30.2533945121,-97.7266628051,House,1.0,1.0,2.0,5.0,1809,Holly Street,78702
941,3000.0,2015-10-25,30.2260001111,-97.7637427657,House,1.0,1.0,1.0,2.0,200,Krebs Lane,78704
942,440.0,2016-03-27,30.2310850941,-97.7615690327,Townhouse,2.0,2.0,2.0,4.0,131,Frederick Street,78704
943,275.0,2015-10-25,30.2359237483,-97.7581139961,Apartment,2.0,2.0,2.0,4.0,2700,Edens Drive,78704
944,105.0,2016-05-23,30.2690130986,-97.7170650187,House,1.0,1.0,1.0,2.0,1143,Poquito Street,78702
945,134.0,2015-11-05,30.263096628,-97.7299012449,Apartment,1.5,1.0,1.0,4.0,414,Attayac Street,78702
948,84.0,2015-11-01,30.2767417264,-97.7285470056,House,1.0,2.0,2.0,4.0,906,East 16th Street,78702
949,400.0,2016-08-15,30.2707384227,-97.715748112,House,1.5,3.0,3.0,8.0,2222,Rosewood Avenue,78702
950,40.0,2015-10-25,30.3223507694,-97.7249626082,House,1.0,1.0,2.0,2.0,5426,Guadalupe Street,78751
951,100.0,2015-10-25,30.3221838016,-97.7242161003,House,1.0,1.0,1.0,2.0,500,West 55th Street,78751
952,280.0,2016-03-27,30.2775717778,-97.7517922387,House,2.0,2.0,2.0,4.0,1006,West 12th Street,78703
953,100.0,2016-08-15,30.3114342606,-97.7126084432,Apartment,1.0,1.0,1.0,2.0,929,East 52nd Street,78751
954,100.0,2015-10-25,30.3217059487,-97.7250054916,House,1.0,1.0,1.0,2.0,506,Nelray Boulevard,78751
955,3000.0,2015-10-25,30.2387527349,-97.7599776509,Townhouse,2.5,2.0,2.0,6.0,2598,Durwood Street,78704
956,100.0,2016-08-15,30.3222490941,-97.7260558908,House,1.0,1.0,1.0,2.0,5426,Nelray Boulevard,78751
957,200.0,2015-10-25,30.2787054161,-97.7525744495,House,1.0,1.0,1.0,5.0,1217,Castle Hill Street,78703
958,499.0,2016-08-15,30.2816341298,-97.7591149637,House,3.0,3.0,4.0,6.0,1601,West 14th Street,78703
959,1850.0,2016-08-15,30.2278427525,-97.7656459246,Apartment,1.0,1.0,1.0,2.0,404,Post Road Drive,78704
960,850.0,2015-10-25,30.2260333647,-97.7665677542,House,2.5,1.0,1.0,2.0,315,Fort Mc Gruder Lane,78704
961,299.0,2015-10-25,30.2784620276,-97.753012358,House,2.0,3.0,3.0,8.0,1209,Castle Hill Street,78703
962,500.0,2015-10-28,30.2836485539,-97.7584698072,Apartment,1.0,1.0,1.0,2.0,1507,Pease Road,78703
963,300.0,2016-01-25,30.2811646291,-97.7551940807,Apartment,1.0,1.0,1.0,3.0,1401,Enfield Road,78703
964,300.0,2016-08-15,30.2389794651,-97.7836957537,Apartment,2.0,2.0,2.0,6.0,1916A,Larchmont Drive,78704
965,399.0,2016-08-15,30.244260248,-97.7771297879,House,2.0,3.0,3.0,8.0,2602,Del Curto Road,78704
966,350.0,2015-10-25,30.3051616426,-97.7305730886,Apartment,1.0,1.0,1.0,2.0,4115,Speedway,78751
967,35.0,2016-03-27,30.3028820476,-97.7345671485,Apartment,1.0,1.0,1.0,2.0,3900,Avenue C,78751
968,295.0,2016-03-27,30.313289189,-97.7188975164,House,2.0,3.0,4.0,8.0,5011,Evans Avenue,78751
969,1856.0,2015-10-25,30.302116825,-97.729008315,House,1.0,1.0,1.0,2.0,4004,Avenue H,78751
970,200.0,2016-03-27,30.3141077646,-97.7230223488,Apartment,1.0,1.0,1.0,4.0,4913,Avenue F,78751
971,103.0,2015-10-25,30.3014614173,-97.7325680273,Apartment,1.0,1.0,1.0,2.0,3815,Speedway,78751
972,575.0,2016-08-15,30.3135925567,-97.7173850136,House,3.5,5.0,5.0,10.0,5106,Eilers Avenue,78751
973,90.0,2016-04-22,30.3017999927,-97.734150836,Apartment,1.0,1.0,1.0,6.0,113,West 38th 1/2 Street,78751
975,102.0,2016-08-15,30.3091918975,-97.7237229632,Apartment,1.0,0.0,1.0,2.0,4604,Duval Street,78751
976,450.0,2015-10-25,30.2447023642,-97.773081739,House,2.0,2.0,2.0,4.0,1608,Ravey Street,78704
977,95.0,2016-08-15,30.3037799842,-97.7348213674,Apartment,1.0,1.0,1.0,1.0,3909,Avenue B,78751
978,200.0,2016-08-15,30.308714457,-97.7272235632,House,1.0,1.0,1.0,2.0,4506,Avenue F,78751
979,500.0,2016-04-18,30.2315589582,-97.7845797057,House,2.5,2.0,2.0,5.0,4025,Valley View Road,78704
980,159.0,2015-11-01,30.3027060872,-97.7312286094,House,1.0,2.0,2.0,4.0,100,East 40th Street,78751
981,450.0,2016-03-27,30.3213091935,-97.7205088051,House,1.0,1.0,1.0,2.0,104 1/2,West 55th Street,78751
982,300.0,2015-10-25,30.235908143,-97.7576658487,House,1.5,1.0,1.0,2.0,183,Cumberland Road,78704
983,250.0,2016-08-15,30.2610510402,-97.7758774061,House,1.0,2.0,2.0,5.0,2504,Trailside Drive,78704
984,290.0,2015-10-25,30.2431185761,-97.7866685863,House,1.5,4.0,5.0,10.0,2303,Westworth Circle,78704
985,3500.0,2015-11-01,30.258878265,-97.7734334516,Townhouse,1.0,2.0,4.0,6.0,2203,Spring Creek Drive,78704
987,2499.0,2015-07-21,30.2536040368,-97.7783614142,House,2.0,2.0,2.0,6.0,2005,Arthur Lane,78704
988,55.0,2015-10-28,30.2399295223,-97.7582969798,Apartment,1.0,1.0,1.0,4.0,2503,Durwood Street,78704
989,200.0,2016-03-27,30.3194591099,-97.7186612714,House,1.0,1.0,1.0,4.0,5501,Avenue G,78751
990,1000.0,2015-10-25,30.246599508,-97.7833432142,House,4.0,4.0,4.0,6.0,2800,Westhill Drive,78704
991,1600.0,2015-10-25,30.3205451793,-97.7257232565,Apartment,1.0,2.0,2.0,6.0,502,Franklin Boulevard,78751
992,89.0,2016-04-28,30.2384376761,-97.7905885248,Apartment,1.0,1.0,2.0,4.0,3816,South Lamar Boulevard,78704
993,100.0,2016-04-22,30.3154094496,-97.7315785516,Apartment,1.0,1.0,1.0,2.0,4637,West Guadalupe Street,78751
996,29.0,2016-05-05,30.2716491275,-97.7160183322,House,1.0,1.0,1.0,1.0,2202,South L Davis Avenue,78702
997,150.0,2016-01-25,30.249267729,-97.7231512138,House,1.5,1.0,3.0,6.0,2201,Ann and Roy Butler Hike and Bike Trail,78702
998,150.0,2016-03-27,30.2590560752,-97.7342060823,House,1.0,1.0,1.0,4.0,1013,Willow Street,78702
999,495.0,2015-10-25,30.2526597584,-97.7844142877,House,2.0,3.0,3.0,6.0,2123,Barton Hills Drive,78704
1000,600.0,2016-08-15,30.2462461163,-97.7702974991,Apartment,1.0,1.0,1.0,2.0,2110,Thornton Road,78704
1001,200.0,2016-04-20,30.2638778302,-97.7562070289,Apartment,2.0,2.0,2.0,6.0,103,Lee Barton Drive,78704
1002,1750.0,2016-08-15,30.302149708,-97.7245326208,House,2.0,3.0,3.0,6.0,709,Park Boulevard,78751
1003,205.0,2016-03-27,30.235232679,-97.7811879548,Apartment,2.0,2.0,2.0,5.0,3514,Clawson Road,78704
1004,127.0,2015-10-28,30.2514168835,-97.7636224151,House,1.0,1.0,1.0,3.0,1515,South Lamar Boulevard,78704
1005,360.0,2016-08-15,30.2352220917,-97.7914822129,Apartment,1.0,1.0,1.0,2.0,4001,South Lamar Boulevard,78704
1007,115.0,2016-02-12,30.3106426709,-97.7314793547,Apartment,1.0,1.0,1.0,3.0,4505,Avenue A,78751
1008,599.0,2016-08-15,30.3126155067,-97.7254319447,House,1.5,1.0,1.0,2.0,4800,Rowena Avenue,78751
1010,180.0,2016-08-15,30.2570092165,-97.759829449,Apartment,1.0,2.0,1.0,6.0,811,South Lamar Boulevard,78704
1011,125.0,2015-12-08,30.3046173824,-97.7326327323,Apartment,1.0,2.0,2.0,7.0,4014,Avenue D,78751
1012,200.0,2016-08-15,30.2571274403,-97.7599372858,Apartment,1.0,1.0,1.0,3.0,809,South Lamar Boulevard,78704
1013,200.0,2016-08-15,30.2358420171,-97.7864504409,Apartment,1.0,1.0,1.0,4.0,3804,Byron Drive,78704
1014,150.0,2016-05-23,30.2569600215,-97.7603740813,Apartment,1.0,1.0,1.0,3.0,901,South Lamar Boulevard,78704
1015,615.0,2015-10-25,30.3117090188,-97.7245529422,Apartment,1.0,1.0,1.0,4.0,4713,Avenue F,78751
1016,123.0,2015-10-25,30.2390304865,-97.7870932986,Apartment,1.0,1.0,1.0,2.0,3505,South Lamar Boulevard,78704
1017,600.0,2015-10-25,30.2992793594,-97.7302546623,House,1.0,1.0,1.0,4.0,3803,Avenue H,78751
1018,1200.0,2015-10-25,30.2348926823,-97.787400339,House,2.0,3.0,4.0,8.0,2104,Prather Lane,78704
1019,2400.0,2015-10-25,30.3023174439,-97.7263312055,House,1.0,2.0,2.0,4.0,4100,Barrow Avenue,78751
1020,400.0,2015-10-25,30.3107986899,-97.7189562745,House,2.0,3.0,3.0,8.0,613,East 49th Street,78751
1021,200.0,2015-11-01,30.3044935506,-97.7336923563,Apartment,1.0,1.0,2.0,4.0,4004b,Avenue C,78751
1022,198.0,2016-04-18,30.3054477713,-97.7140527139,House,2.0,4.0,4.0,9.0,4704,North Interstate Highway 35,78751
1023,800.0,2015-10-25,30.3012390924,-97.7185416843,House,1.0,2.0,2.0,6.0,1019,East 43rd Street,78751
1024,1000.0,2015-10-25,30.2951554591,-97.7230729645,House,2.0,4.0,5.0,8.0,905,East 38th Street,78705
1025,299.0,2016-08-15,30.2385805516,-97.7873738802,Apartment,2.0,2.0,2.0,4.0,2314,Panther Trail,78704
1027,300.0,2015-10-25,30.3089697173,-97.7215968115,House,1.5,2.0,2.0,4.0,4607,Evans Avenue,78751
1028,65.0,2016-08-15,30.235171853,-97.7743210878,House,1.0,1.0,1.0,2.0,1401,Valleyridge Drive,78704
1029,120.0,2016-03-25,30.2563194023,-97.7597199378,Apartment,1.0,1.0,1.0,4.0,813,South Lamar Boulevard,78704
1030,800.0,2015-10-25,30.3112574177,-97.7217666164,House,1.0,1.0,1.0,2.0,4805,Duval Street,78751
1031,80.0,2016-08-15,30.400115642,-97.7240561665,Apartment,1.0,1.0,1.0,3.0,3202,Esperanza Crossing,78758
1032,2000.0,2016-08-15,30.3067646317,-97.7263540833,House,1.0,1.0,1.0,4.0,4400,Avenue H,78751
1033,105.0,2016-08-15,30.2430564558,-97.7816728908,Apartment,1.0,1.0,1.0,3.0,2832,Manchaca Road,78704
1034,125.0,2016-08-15,30.2425842862,-97.7812436459,House,1.0,2.0,2.0,2.0,2072,Lightsey Road,78704
1035,85.0,2016-04-04,30.3057916421,-97.716197862,Apartment,1.0,1.0,1.0,4.0,4609,Bennett Avenue,78751
1036,150.0,2015-11-09,30.2557974179,-97.7602600823,Apartment,1.0,1.0,1.0,4.0,1200,Treadwell Street,78704
1037,200.0,2016-08-15,30.2915999167,-97.7236065943,Apartment,1.0,1.0,3.0,5.0,915,Duncan Lane,78705
1038,250.0,2016-04-18,30.2353268553,-97.7820718599,Apartment,1.0,1.0,1.0,2.0,7,Valley View Road,78704
1039,65.0,2016-05-23,30.2476535811,-97.7725528487,Apartment,1.0,1.0,1.0,2.0,2153,South Lamar Boulevard,78704
1040,40.0,2016-08-15,30.237089481,-97.7879931839,Apartment,1.0,1.0,1.0,2.0,2229,Panther Trail,78704
1041,125.0,2016-08-15,30.2454493034,-97.7753842769,Apartment,1.0,1.0,1.0,3.0,2210,Delcrest Drive,78704
1042,120.0,2016-03-27,30.2454511734,-97.7760257071,Apartment,1.0,1.0,1.0,2.0,2402,Del Curto Road,78704
1043,125.0,2016-04-18,30.3069892729,-97.7212269528,House,1.0,1.0,1.0,2.0,702,East 45th 1/2 Street,78751
1044,60.0,2015-11-01,30.2354622341,-97.7900886582,Apartment,1.0,1.0,1.0,2.0,4001,Victory Drive,78704
1045,108.0,2016-08-15,30.2330630003,-97.7792204959,House,1.0,1.0,1.0,2.0,1505,Rockdale Circle,78704
1048,295.0,2016-08-15,30.2390364359,-97.7793193885,House,1.0,2.0,1.0,4.0,3300,Aldwyche Drive,78704
1049,250.0,2015-10-25,30.2401305003,-97.7864674703,Apartment,2.0,2.0,3.0,5.0,3501,South Lamar Boulevard,78704
1050,333.0,2016-01-25,30.2334916922,-97.7745430746,Apartment,0.5,1.0,1.0,2.0,1300,Southport Drive,78704
1051,1250.0,2016-08-15,30.2449101206,-97.7778723741,Apartment,1.0,2.0,2.0,4.0,2525,South Lamar Boulevard,78704
1052,125.0,2016-04-17,30.2358187845,-97.7577275976,House,1.0,1.0,1.0,2.0,111,Cumberland Road,78704
1053,100.0,2016-08-03,30.2350104088,-97.7601349353,House,1.0,1.0,1.0,2.0,2805,Brinwood Avenue,78704
1054,190.0,2015-12-08,30.2660564985,-97.7424264797,Apartment,1.0,1.0,2.0,4.0,401,Congress Avenue,78701
1055,50.0,2016-08-16,30.3130174341,-97.6842689276,House,1.0,1.0,1.0,2.0,6201,Haney Drive,78723
1057,115.0,2015-09-18,30.1843145453,-97.8113736875,House,2.0,3.0,3.0,6.0,8516,Devine Lane,78748
1058,199.0,2016-08-11,30.173425309,-97.8058007589,Apartment,1.0,1.0,1.0,2.0,811,West Slaughter Lane,78748
1059,1250.0,2015-10-25,30.3179863807,-97.7170628679,House,3.5,4.0,4.0,5.0,5409,Duval Street,78751
1060,2500.0,2015-10-25,30.3185596885,-97.7196124323,House,,1.0,,6.0,5400,Avenue G,78751
1061,425.0,2015-10-25,30.3206299365,-97.7240533943,House,1.0,2.0,3.0,6.0,307,Nelray Boulevard,78751
1062,199.0,2015-10-25,30.2398788018,-97.756377805,House,3.0,2.0,8.0,6.0,2404,Euclid Avenue,78704
1063,100.0,2016-08-15,30.3230859622,-97.7255246681,House,1.0,1.0,1.0,2.0,5555,North Lamar Boulevard,78751
1064,2500.0,2015-10-25,30.2322547248,-97.7655202063,Apartment,1.0,1.0,1.0,4.0,519,Lightsey Road,78704
1066,1495.0,2016-03-27,30.3202208891,-97.7267834468,House,3.0,4.0,4.0,8.0,5301,Guadalupe Street,78751
1067,500.0,2015-10-25,30.235841032,-97.7576429518,House,1.5,1.0,1.0,2.0,111,Cumberland Road,78704
1068,500.0,2015-10-25,30.260329734,-97.7747625015,Apartment,1.5,2.0,2.0,4.0,1215,Hollow Creek Drive,78704
1069,2700.0,2015-10-25,30.3150493238,-97.732481271,Apartment,2.0,2.0,4.0,6.0,4600,West 47th Street,78751
1070,500.0,2016-01-12,30.2509026562,-97.7884333462,House,2.0,3.0,5.0,8.0,2907,Kassarine Pass,78704
1071,100.0,2015-10-25,30.3224646505,-97.7248303906,House,1.0,1.0,2.0,2.0,5500,Guadalupe Street,78751
1072,65.0,2015-10-25,30.2389647341,-97.7898307208,Apartment,1.0,1.0,2.0,2.0,3816,South Lamar Boulevard,78704
1073,450.0,2015-11-01,30.2613839947,-97.7713343775,House,1.5,2.0,2.0,2.0,1100,Barton Hills Drive,78704
1074,75.0,2016-08-15,30.2590585156,-97.7905457227,Apartment,1.0,1.0,1.0,4.0,31,Spyglass Drive,78746
1075,700.0,2016-03-27,30.2599670137,-97.7323053691,Townhouse,1.0,2.0,2.0,4.0,1200,East Cesar Chavez Street,78702
1076,105.0,2015-11-01,30.2483985467,-97.723019221,House,1.0,2.0,2.0,5.0,2201,Ann and Roy Butler Hike and Bike Trail,78702
1077,65.0,2015-10-25,30.3194699518,-97.7157320812,House,1.0,1.0,1.0,2.0,512,East 56th Street,78751
1078,250.0,2016-05-23,30.2637641991,-97.7329103006,Apartment,1.0,1.0,1.0,2.0,1001,East 5th Street,78702
1079,250.0,2016-03-27,30.2573026129,-97.7911809194,Apartment,1.0,2.0,2.0,4.0,1741,Spyglass Drive,78746
1080,799.0,2015-10-25,30.2506440969,-97.7817843501,House,4.0,5.0,8.0,16.0,2402,Arpdale Street,78704
1081,75.0,2015-10-25,30.2568595078,-97.7291380342,House,1.0,0.0,1.0,2.0,1602,Canterbury Street,78702
1083,60.0,2016-08-15,30.2443187718,-97.7843569226,House,1.0,1.0,1.0,2.0,2324,Westoak Drive,78704
1084,400.0,2015-10-25,30.2610469926,-97.7671270539,House,1.0,2.0,3.0,6.0,801,Barton Boulevard,78704
1085,300.0,2015-10-28,30.2403192409,-97.7900639852,Apartment,1.0,1.0,1.0,2.0,3600,South Lamar Boulevard,78704
1086,500.0,2016-04-18,30.2698351364,-97.7287410815,House,1.0,1.0,1.0,2.0,1016,Juniper Street,78702
1088,325.0,2016-01-25,30.2563068624,-97.7330574204,House,2.5,3.0,5.0,8.0,1215,Taylor Street,78702
1089,214.0,2016-08-15,30.2640732982,-97.7212012645,House,2.0,2.0,2.0,6.0,1905,East 9th Street,78702
1090,180.0,2015-10-25,30.2761325346,-97.7195521028,House,1.0,3.0,3.0,6.0,1908,East 14th Street,78702
1093,35.0,2016-05-04,30.3166855897,-97.7164975783,House,2.5,1.0,1.0,1.0,601,East 54th Street,78751
1094,600.0,2016-02-12,30.2343303685,-97.7485997423,House,3.0,4.0,6.0,10.0,2509,Little John Lane,78704
1095,120.0,2015-10-25,30.2643637834,-97.7285334093,Apartment,,2.0,3.0,5.0,610,Navasota Street,78702
1096,169.0,2016-04-25,30.2558242248,-97.7343644057,House,1.0,3.0,4.0,6.0,57,Waller Street,78702
1098,275.0,2016-05-04,30.2515169165,-97.7227848635,House,1.0,2.0,2.0,4.0,2114,Haskell Street,78702
1099,170.0,2015-10-25,30.2593005111,-97.7320428397,House,1.0,1.0,1.0,2.0,1206,Willow Street,78702
1124,165.0,2015-10-25,30.2259098258,-97.7529993545,Apartment,1.0,1.0,1.0,4.0,607,Woodward Street,78704
1125,225.0,2016-04-17,30.232229291,-97.7457873642,House,3.0,4.0,5.0,6.0,1211,East Oltorf Street,78704
1127,70.0,2016-08-03,30.2267499087,-97.7549569926,Apartment,1.0,2.0,2.0,5.0,3400,Willowrun Drive,78704
1128,250.0,2016-08-03,30.2341931779,-97.7494814213,House,1.0,1.0,2.0,3.0,2511,East Side Drive,78704
1129,80.0,2016-02-12,30.2261651655,-97.7550590229,Apartment,1.0,1.0,1.0,2.0,3417,Willowrun Drive,78704
1130,1800.0,2016-08-03,30.2968257683,-97.730489571,House,1.0,1.0,1.0,2.0,506,Carolyn Avenue,78705
1131,100.0,2015-10-25,30.2837534875,-97.704762342,Apartment,1.0,0.0,1.0,2.0,2019,Airport Boulevard,78722
1132,65.0,2016-03-25,30.2430800597,-97.7595142376,House,1.0,1.0,1.0,3.0,609,Fletcher Street,78704
1133,200.0,2016-03-27,30.2590990378,-97.7468468976,Apartment,2.0,1.0,1.0,2.0,112,Barton Springs Road,78704
1134,99.0,2016-08-03,30.2544667613,-97.7576627329,House,1.0,2.0,2.0,3.0,910,West James Street,78704
1136,53.0,2016-08-03,30.2886280558,-97.713554339,Apartment,1.0,0.0,1.0,2.0,3406,Larry Lane,78722
1137,75.0,2016-06-13,30.2502489973,-97.7534495774,House,1.0,1.0,1.0,4.0,403,West Elizabeth Street,78704
1138,52.0,2016-08-03,30.2880253645,-97.7201660138,Apartment,1.0,0.0,1.0,2.0,3110,Lafayette Avenue,78722
1139,178.0,2016-08-03,30.2573480617,-97.7395971601,Apartment,1.0,0.0,1.0,2.0,54,Rainey Street,78701
1141,55.0,2016-04-28,30.2717636493,-97.7434709252,Apartment,1.0,1.0,1.0,2.0,901,Lavaca Street,78701
1142,80.0,2016-03-25,30.321741694,-97.7238390565,Apartment,1.0,1.0,1.0,2.0,403,West 55th Street,78751
1143,575.0,2015-10-25,30.3132911217,-97.7151933734,Apartment,1.0,1.0,1.0,2.0,5201,Airport Boulevard,78751
1144,70.0,2016-01-25,30.3156639267,-97.718405247,House,1.0,0.0,1.0,3.0,5206,Evans Avenue,78751
1145,3000.0,2015-10-25,30.3214929174,-97.7209300642,House,1.0,2.0,2.0,7.0,110,West 55th 1/2 Street,78751
1146,75.0,2016-08-03,30.2299974037,-97.7656017328,Apartment,1.0,1.0,1.0,3.0,503,West Alpine Road,78704
1147,125.0,2015-10-25,30.237764403,-97.7734437727,House,1.0,1.0,1.0,2.0,3007,Leaning Oak Circle,78704
1148,99.0,2016-08-03,30.2547425107,-97.7619025685,Apartment,1.0,1.0,1.0,2.0,1205,West Gibson Street,78704
1149,56.0,2016-08-03,30.306692232,-97.7296876568,Apartment,1.0,0.0,1.0,2.0,4300,Speedway,78705
1150,75.0,2015-10-25,30.306473259,-97.7309811104,House,3.5,1.0,1.0,2.0,4211,Avenue D,78751
1151,109.0,2016-08-03,30.3038582743,-97.7363421036,Apartment,1.0,1.0,1.0,3.0,532,West 39th Street,78751
1152,74.0,2016-03-25,30.2422770515,-97.7805595104,Apartment,1.0,0.0,2.0,3.0,2012,Cody Court,78704
1153,150.0,2015-10-25,30.2519987544,-97.7474619752,House,1.0,1.0,2.0,2.0,110,Academy Drive,78704
1155,1049.0,2016-05-18,30.2556347082,-97.7778524777,House,1.0,1.0,1.0,2.0,2309,Ridgeview Drive,78704
1156,2850.0,2015-10-25,30.2608359573,-97.7732977566,Apartment,1.0,2.0,2.0,4.0,1200,Hollow Creek Drive,78704
1157,75.0,2016-03-25,30.2833473088,-97.7581329636,Apartment,1.0,1.0,1.0,2.0,1504,West Lynn Street,78703
1158,135.0,2016-08-03,30.2814080424,-97.7639946678,House,1.0,1.0,1.0,4.0,1802,West 10th Street,78703
1159,1050.0,2015-10-25,30.281226901,-97.7599499848,House,1.0,0.0,2.0,3.0,1617,Waterston Avenue,78703
1161,120.0,2016-03-27,30.2381902518,-97.7939254819,Apartment,1.0,1.0,1.0,2.0,4006,South Lamar Boulevard,78704
1162,69.0,2016-03-27,30.280443772,-97.7601072659,House,1.0,1.0,1.0,2.0,1617,West 12th Street,78703
1163,170.0,2016-02-12,30.2822998752,-97.757942658,House,2.0,2.0,2.0,5.0,1401,West Lynn Street,78703
1164,3744.0,2015-10-28,30.2800917543,-97.7601364282,House,2.0,2.0,2.0,6.0,1601,West 11 1/2 Street,78703
1165,3980.0,2015-10-25,30.243506161,-97.7269083261,Apartment,1.0,1.0,2.0,3.0,1333,Arena Drive,78741
1166,75.0,2016-08-03,30.2338862456,-97.7322766832,Apartment,1.0,1.0,1.0,3.0,1901,Mariposa Drive,78741
1167,46.0,2016-08-03,30.2313464696,-97.7297296537,Apartment,1.0,1.0,1.0,2.0,2306,Anken Drive,78741
1168,350.0,2015-10-25,30.2941381389,-97.7180173012,House,1.0,1.0,1.0,2.0,1200,East 38th 1/2 Street,78722
1169,95.0,2016-01-25,30.2840432578,-97.7170173449,Apartment,1.0,0.0,2.0,3.0,2206,Maple Avenue,78722
1170,80.0,2015-10-25,30.2541577419,-97.7573348798,Apartment,1.0,1.0,1.0,2.0,904,West James Street,78704
1172,91.0,2016-05-04,30.2871543002,-97.7107255589,Apartment,2.0,2.0,2.0,6.0,3500,Basford Road,78722
1173,420.0,2015-10-25,30.2821830188,-97.7164054286,House,1.5,1.0,1.0,2.0,2007,Maple Avenue,78722
1174,99.0,2016-08-03,30.2911916714,-97.7139537191,House,1.0,1.0,1.0,2.0,3710,Cherrywood Road,78722
1175,85.0,2016-08-03,30.2467926207,-97.7585960883,House,1.0,1.0,1.0,2.0,705,West Mary Street,78704
1176,125.0,2015-10-25,30.2807381393,-97.7438117023,Apartment,1.0,1.0,1.0,4.0,506,West 17th Street,78701
1177,105.0,2015-10-25,30.279995281,-97.7440332331,Apartment,1.0,1.0,1.0,3.0,507,West 17th Street,78701
1178,200.0,2016-08-03,30.2302035349,-97.765085262,Apartment,2.0,2.0,2.0,4.0,412,West Alpine Road,78704
1180,130.0,2016-08-03,30.3155094629,-97.7357293594,Apartment,1.0,1.0,1.0,2.0,4600,North Lamar Boulevard,78751
1181,100.0,2016-03-25,30.3208383636,-97.7206691474,House,1.0,0.0,3.0,3.0,103,West 55th 1/2 Street,78751
1182,40.0,2016-08-03,30.311226774,-97.7304506396,Apartment,1.0,0.0,1.0,2.0,4518,Avenue B,78751
1183,125.0,2016-08-03,30.2375313176,-97.7789349322,House,1.0,1.0,2.0,2.0,3304,Doolin Drive,78704
1184,381.0,2015-10-25,30.3058604184,-97.7273544854,House,1.0,1.0,1.0,3.0,4307,Avenue G,78751
1185,85.0,2016-04-17,30.3035119104,-97.7343228782,Apartment,1.0,1.0,1.0,2.0,3908,Avenue C,78751
1186,86.0,2016-08-03,30.307222706,-97.730541667,Apartment,1.0,1.0,2.0,3.0,4302,Avenue D,78751
1187,500.0,2016-03-27,30.240470281,-97.7844816896,Apartment,1.0,1.0,1.0,2.0,3201,South Lamar Boulevard,78704
1188,92.0,2016-01-25,30.2532035614,-97.7484277266,Apartment,1.0,2.0,3.0,6.0,1100,South Congress Avenue,78704
1190,750.0,2015-11-09,30.2462131107,-97.7517894679,House,1.0,1.0,1.0,2.0,107,West Annie Street,78704
1191,92.0,2016-08-03,30.2461298636,-97.7520837325,Apartment,1.0,0.0,1.0,2.0,1805,Eva Street,78704
1192,99.0,2016-03-25,30.2495974195,-97.7823895357,Apartment,1.0,1.0,2.0,4.0,2326,Montclaire Street,78704
1196,60.0,2015-10-28,30.2460436725,-97.7699977906,Townhouse,1.5,1.0,1.0,2.0,2107,Thornton Road,78704
1197,60.0,2016-08-03,30.233800645,-97.7336148807,Apartment,1.0,1.0,1.0,2.0,2000,Burton Drive,78741
1198,80.0,2016-08-05,30.1413468923,-97.7645876951,House,2.0,3.0,3.0,4.0,10137,Crescendo Lane,78747
1199,450.0,2015-10-25,30.2923415756,-97.7206953666,House,1.0,1.0,1.0,2.0,3411,North Interstate Highway 35,78722
1200,500.0,2015-10-25,30.258238241,-97.786398471,House,2.5,3.0,2.0,6.0,2502,Dana Cove,78746
1201,119.0,2016-03-27,30.2776423736,-97.7180033656,Apartment,1.0,1.0,2.0,4.0,1605,Alamo Street,78702
1202,250.0,2016-03-27,30.2647994825,-97.7324313958,Apartment,1.0,0.0,1.0,2.0,1000,East 5th Street,78702
1203,999.0,2015-10-28,30.2439219666,-97.7860813059,House,1.0,2.0,2.0,5.0,2321,Westrock Drive,78704
1204,299.0,2016-03-27,30.2456326052,-97.7851207071,House,2.0,3.0,4.0,6.0,2906,Westhill Drive,78704
1205,300.0,2016-05-18,30.2654368739,-97.7329771983,Apartment,1.0,1.0,2.0,4.0,900,East 6th Street,78702
1206,59.0,2016-04-28,30.2662322647,-97.7165482044,House,2.0,1.0,1.0,4.0,2404,East 11th Street,78702
1207,690.0,2015-10-25,30.2342643126,-97.7483287868,House,4.0,5.0,11.0,12.0,2509,Little John Lane,78704
1208,65.0,2016-04-08,30.2649763418,-97.7164976398,House,1.0,1.0,2.0,4.0,2312,East 10th Street,78702
1209,125.0,2015-10-25,30.3140185359,-97.7154637896,House,1.0,1.0,1.0,2.0,5201,Clarkson Avenue,78751
1214,169.0,2016-04-04,30.2754173164,-97.7247272363,House,1.0,1.0,1.0,4.0,1404,East 14th Street,78702
1215,100.0,2016-08-15,30.3196088119,-97.7250462867,Apartment,1.0,1.0,1.0,3.0,310,West North Loop Boulevard,78751
1216,150.0,2015-10-25,30.3133400247,-97.7348308852,Apartment,1.0,1.0,1.0,2.0,4517,Triangle Avenue,78751
1217,1000.0,2016-04-22,30.2624730931,-97.7203371246,House,2.5,5.0,8.0,10.0,1922,East 7th Street,78702
1220,89.0,2016-08-15,30.2514626161,-97.717190117,House,1.5,2.0,3.0,4.0,71,Julius Street,78702
1221,495.0,2016-03-27,30.2333251114,-97.7499184618,House,3.0,3.0,3.0,7.0,2605,East Side Drive,78704
1222,99.0,2015-10-28,30.2792676134,-97.7515836554,House,1.0,0.0,2.0,4.0,1501,Parkway,78703
1223,207.0,2015-10-25,30.2787733175,-97.714522889,House,1.0,1.0,2.0,2.0,1701,Singleton Avenue,78702
1224,262.0,2015-10-25,30.2787464844,-97.7551672025,House,1.0,2.0,2.0,6.0,1202,Shelley Avenue,78703
1225,250.0,2016-08-15,30.2709730739,-97.7291900527,House,1.5,1.0,1.0,2.0,1002,Olive Street,78702
1226,5000.0,2015-10-25,30.2671977411,-97.7200347738,House,2.0,3.0,3.0,6.0,1122,Chicon Street,78702
1227,759.0,2015-10-25,30.2634334215,-97.720227613,House,2.0,2.0,2.0,6.0,801,Lincoln Street,78702
1228,179.0,2016-04-22,30.2363806448,-97.7570737101,Townhouse,2.5,2.0,3.0,8.0,124,Cumberland Road,78704
1229,5995.0,2015-10-25,30.23553011,-97.7627890881,House,2.5,2.0,3.0,6.0,517,Sacramento Drive,78704
1230,175.0,2015-11-01,30.270416493,-97.7303399575,Apartment,1.0,1.0,1.0,2.0,910,Juniper Street,78702
1231,550.0,2016-08-15,30.2592891664,-97.7114465151,House,1.0,0.0,1.0,2.0,2701,East 7th Street,78702
1232,2500.0,2015-10-25,30.2684418552,-97.7234557259,House,2.5,1.0,1.0,2.0,1130,Concho Street,78702
1233,950.0,2016-08-15,30.280273478,-97.7559556229,Apartment,1.0,2.0,3.0,4.0,1402,West 13th Street,78703
1234,90.0,2015-10-25,30.2368572648,-97.759830826,House,1.0,1.0,1.0,1.0,2702,Wilson Street,78704
1235,75.0,2015-10-25,30.2698264167,-97.7235291025,House,1.0,1.0,1.0,2.0,1161,Angelina Street,78702
1237,200.0,2016-03-25,30.2810672968,-97.7588917553,Apartment,1.0,1.0,1.0,2.0,1300,West Lynn Street,78703
1238,400.0,2016-04-18,30.2795351957,-97.7535317375,Apartment,2.0,3.0,4.0,7.0,1209,Windsor Road,78703
1239,119.0,2016-04-20,30.2395794493,-97.7572127719,Apartment,1.0,0.0,1.0,4.0,2414,Forest Avenue,78704
1240,300.0,2016-04-18,30.2796210863,-97.7536292518,Apartment,1.0,2.0,2.0,6.0,1209,Windsor Road,78703
1241,95.0,2016-06-13,30.3095281364,-97.7317807386,House,1.0,1.0,2.0,3.0,4400,Avenue B,78751
1242,1200.0,2015-10-25,30.3086130235,-97.7322677625,House,2.5,3.0,4.0,8.0,4310,Avenue B,78751
1243,1150.0,2015-10-25,30.3022197109,-97.7287045999,Apartment,1.0,2.0,2.0,4.0,4009,Avenue H,78751
1244,250.0,2015-10-25,30.3100492101,-97.7281115249,House,1.0,1.0,2.0,5.0,4517,Avenue D,78751
1245,100.0,2016-03-27,30.2370708339,-97.7769724632,Apartment,1.0,1.0,1.0,2.0,1600,Valleyridge Drive,78704
1246,250.0,2016-03-27,30.3060881521,-97.7343934841,House,1.0,1.0,2.0,4.0,65,Avenue A - Avenue B Alley,78751
1247,3600.0,2016-08-15,30.3028368839,-97.7256715656,House,3.0,4.0,6.0,11.0,4203,Barrow Avenue,78751
1248,5800.0,2015-10-25,30.2363884779,-97.7873697382,House,2.0,3.0,3.0,6.0,3808,Keats Drive,78704
1249,105.0,2016-04-22,30.3087775006,-97.7297470695,House,1.0,2.0,3.0,3.0,4410,Avenue D,78751
1250,132.0,2016-03-27,30.3119880002,-97.7251361901,House,1.0,2.0,2.0,4.0,108,East 48th Street,78751
1251,450.0,2015-10-25,30.3004757353,-97.7302525524,House,3.0,4.0,4.0,7.0,309,East 39th Street,78751
1252,200.0,2015-10-25,30.2491599412,-97.7655383497,Apartment,1.0,1.0,2.0,4.0,1207,West Mary Street,78704
1253,165.0,2015-10-25,30.3054527982,-97.7361215222,Apartment,1.0,0.0,2.0,3.0,4001,Guadalupe Street,78751
1254,250.0,2016-08-15,30.3044087145,-97.7357494346,House,2.0,1.0,1.0,2.0,3900,Avenue B,78751
1255,500.0,2015-10-25,30.3069867501,-97.7285935832,House,1.5,2.0,3.0,6.0,4312,Avenue F,78751
1256,230.0,2015-10-28,30.2437859512,-97.7736776068,House,2.5,3.0,4.0,8.0,2411,Kinney Road,78704
1257,600.0,2015-10-25,30.3055336307,-97.7175917325,House,,1.0,,5.0,4527,Depew Avenue,78751
1259,185.0,2015-10-25,30.3025062637,-97.7361307492,Apartment,1.0,1.0,1.0,4.0,3804,Avenue B,78751
1261,430.0,2015-10-25,30.3077923178,-97.7178921297,House,1.5,1.0,1.0,2.0,4700,Red River Street,78751
1262,175.0,2015-10-25,30.2349544895,-97.7768970419,House,1.0,1.0,1.0,3.0,3603,Southridge Drive,78704
1263,250.0,2016-03-27,30.3060840217,-97.7339899471,Apartment,1.0,1.0,1.0,2.0,4104,Avenue B,78751
1264,550.0,2015-10-25,30.3009856504,-97.7335366591,Apartment,1.0,1.0,1.0,2.0,3802,Speedway,78751
1265,1700.0,2015-10-25,30.3115272042,-97.7229817922,Apartment,1.5,1.0,1.0,3.0,4800,Avenue H,78751
1266,190.0,2016-03-27,30.2340372625,-97.7912612902,Apartment,2.0,2.0,2.0,5.0,2300,West Ben White Boulevard,78704
1267,1200.0,2015-11-01,30.2316832126,-97.7814691583,House,1.0,2.0,2.0,5.0,1604,Grayford Drive,78704
1268,350.0,2015-10-25,30.244082162,-97.7758289525,House,2.5,3.0,3.0,6.0,2508,Southland Drive,78704
1269,90.0,2015-10-25,30.2397414377,-97.7330351887,Apartment,1.0,2.0,3.0,4.0,1707,Taylor Gaines Street,78741
1271,200.0,2015-10-25,30.2457530589,-97.76073574,House,1.0,1.0,1.0,2.0,2014,South 3rd Street,78704
1272,200.0,2015-10-25,30.2483418632,-97.7343526291,Apartment,1.5,2.0,2.0,6.0,1300,East Riverside Drive,78741
1273,875.0,2015-10-25,30.282063925,-97.7179507844,House,1.0,2.0,2.0,4.0,2207,East 21st Street,78722
1274,299.0,2015-10-25,30.2452209889,-97.7535102106,Apartment,1.0,1.0,2.0,4.0,1907,Newton Street,78704
1275,575.0,2015-11-01,30.2477818851,-97.7628662198,House,2.0,2.0,2.0,5.0,1002,West Johanna Street,78704
1276,199.0,2016-04-20,30.2565709525,-97.7516281335,Apartment,1.0,1.0,1.0,3.0,614,South 1st Street,78704
1277,300.0,2015-10-25,30.2402803484,-97.720179995,Apartment,1.0,1.0,1.0,4.0,1300,South Pleasant Valley Road,78741
1279,375.0,2015-10-28,30.2426413137,-97.7250967538,House,1.5,2.0,2.0,6.0,2223,Waterloo City Lane,78741
1280,2500.0,2015-10-25,30.2458796112,-97.7512204781,House,1.0,1.0,1.0,2.0,1808,South Congress Avenue,78704
1281,600.0,2016-08-15,30.2488145639,-97.7573513135,Apartment,1.0,1.0,2.0,2.0,703,West Milton Street,78704
1282,189.0,2016-01-25,30.2494313181,-97.7546518131,House,2.0,2.0,2.0,4.0,1503,South 1st Street,78704
1283,149.0,2016-03-27,30.2522972005,-97.749358515,Apartment,1.0,1.0,1.0,4.0,1201,Nellie Street,78704
1284,100.0,2016-03-27,30.2870842001,-97.7090345547,Apartment,1.0,1.0,1.0,4.0,3507,Grayson Lane,78722
1285,95.0,2015-10-25,30.2547823625,-97.7591275206,House,1.0,1.0,2.0,4.0,1111,South 6th Street,78704
1286,75.0,2016-08-15,30.2465806788,-97.7628013494,House,1.0,1.0,2.0,2.0,2007,South 5th Street,78704
1287,175.0,2015-10-25,30.2410727179,-97.7240432835,Apartment,1.0,1.0,1.0,3.0,2214,Elmont Drive,78741
1289,200.0,2016-03-27,30.2319358848,-97.7316894749,Apartment,1.0,1.0,1.0,3.0,2101,Burton Drive,78741
1290,2575.0,2015-10-28,30.2543145685,-97.7557797937,House,1.0,2.0,2.0,4.0,809,Columbus Street,78704
1291,275.0,2016-04-22,30.2798229256,-97.7404448198,Apartment,1.0,1.0,1.0,1.0,1710,Colorado Street,78701
1292,79.0,2015-10-25,30.2634015309,-97.7374818856,House,1.0,1.0,1.0,2.0,601,East 3rd Street,78701
1293,175.0,2015-10-19,30.2365060765,-97.7364622088,House,1.0,2.0,3.0,6.0,1703,Antler Drive,78741
1294,1211.0,2015-12-08,30.2469523843,-97.7344153652,House,2.5,4.0,5.0,10.0,1003,North Interstate 35 Frontage Road,78741
1295,286.0,2016-04-25,30.2683331281,-97.7429479782,Apartment,1.0,2.0,4.0,6.0,600,Congress Avenue,78701
1296,240.0,2016-04-18,30.2648868872,-97.7380915953,Apartment,1.0,1.0,1.0,3.0,500,East 4th Street,78701
1297,200.0,2016-03-27,30.2392841603,-97.7346446676,Apartment,1.0,2.0,2.0,4.0,1702,Woodland Avenue,78741
1298,125.0,2016-03-27,30.2404765438,-97.7347143597,House,1.5,1.0,1.0,2.0,1609,Sylvan Drive,78741
1300,150.0,2015-10-25,30.2762970878,-97.6783365292,House,1.0,2.0,2.0,6.0,5517,Jackie Robinson Street,78721
1302,499.0,2015-10-13,30.3971935861,-97.9302451518,House,2.5,3.0,9.0,14.0,3611,Ranch Road 620 North,78734
1303,149.0,2016-04-08,30.1591304661,-97.7782460431,House,1.5,2.0,2.0,4.0,9412,Rowlands Sayle Road,78744
1304,750.0,2016-08-17,30.4049613433,-97.9281917586,House,3.5,3.0,4.0,8.0,4402,Hudson Bend Road,78734
1305,37.0,2016-04-04,30.2317792726,-97.7215398475,Apartment,1.0,1.0,1.0,1.0,2100,Wickersham Lane,78741
1306,928.0,2015-10-25,30.2640489841,-97.7334169559,House,1.0,1.0,1.0,2.0,901,East 5th Street,78702
1307,325.0,2016-04-04,30.3956832003,-97.7655862802,House,2.5,4.0,7.0,10.0,9225,Simmons Road,78759
1308,100.0,2016-08-17,30.1744997835,-97.6933397839,House,1.0,1.0,1.0,2.0,5517,Gooding Drive,78744
1309,90.0,2016-04-04,30.4604050722,-97.6844738429,House,1.5,1.0,2.0,4.0,3609,Mocha Trail,78728
1310,1585.0,2015-10-28,30.2899109412,-97.7632330022,House,1.0,1.0,1.0,2.0,2007,Griswold Lane,78703
1311,109.0,2016-04-04,30.2734940322,-97.6880676743,House,2.0,3.0,3.0,6.0,1105,Mansell Avenue,78721
1312,69.0,2016-03-27,30.280312642,-97.711989568,House,1.0,2.0,3.0,6.0,1803,Ulit Avenue,78702
1313,1850.0,2016-04-08,30.3932942665,-97.9338968092,House,4.5,5.0,7.0,14.0,3213,Ranch Road 620 North,78734
1314,45.0,2015-10-21,30.1318635914,-97.8256701993,House,1.0,1.0,1.0,3.0,12503,Twin Creeks Road,78652
1315,115.0,2016-08-17,30.4120386822,-97.7131662461,House,1.0,2.0,2.0,4.0,3103,Canter Lane,78759
1316,180.0,2016-04-08,30.2310493772,-97.8344905745,Apartment,1.0,0.0,2.0,4.0,4600,Monterey Oaks Boulevard,78749
1317,195.0,2016-08-17,30.3384396886,-97.7328670062,House,2.0,3.0,3.0,8.0,1708,Karen Avenue,78757
1318,2170.0,2016-08-17,30.2873940781,-97.8193117327,House,4.0,5.0,5.0,10.0,107,Wood Trail,78746
1319,45.0,2015-10-28,30.23173788,-97.8329951035,Apartment,1.0,1.0,1.0,2.0,4600,Monterey Oaks Boulevard,78749
1320,5000.0,2015-10-28,30.2780116941,-97.7980330587,House,3.5,3.0,7.0,12.0,3312,Bee Cave Road,78746
1321,65.0,2016-04-08,30.2253410972,-97.6940185331,House,1.0,1.0,2.0,4.0,1497,Frontier Valley Drive,78741
1322,45.0,2016-04-08,30.2251938761,-97.7866341602,House,1.0,1.0,1.0,2.0,4509,Clawson Road,78745
1324,60.0,2016-08-17,30.2003784098,-97.7714033721,Apartment,1.0,1.0,1.0,2.0,401,Little Texas Lane,78745
1325,100.0,2016-05-05,30.2393851415,-97.737037723,House,2.5,1.0,1.0,2.0,1825,North Interstate 35 Frontage Road,78741
1326,270.0,2015-11-01,30.2029280154,-97.852436901,House,1.0,1.0,1.0,2.0,4501,Corran Ferry Loop,78749
1327,45.0,2016-04-04,30.1986399895,-97.8193618856,House,1.0,1.0,1.0,2.0,7703,Seminary Ridge Drive,78745
1329,113.0,2015-10-19,30.4587895027,-97.8002102879,House,2.0,3.0,3.0,7.0,2307,Lake Creek Parkway,78750
1330,30.0,2016-08-17,30.3754386537,-97.7338280927,Townhouse,1.5,1.0,1.0,2.0,8920,Shoal Creek Boulevard,78757
1332,270.0,2015-10-28,30.4508792056,-97.6875158831,House,1.0,1.0,1.0,2.0,3112,Wavecrest Boulevard,78728
1333,35.0,2016-04-08,30.4387820853,-97.7436710577,House,1.5,1.0,1.0,2.0,5942,Kevin Kelly Place,78727
1334,700.0,2015-10-25,30.3024380911,-97.6878886306,House,1.0,0.0,1.0,2.0,5202,Brookdale Lane,78723
